{
"type": "FeatureCollection",
"name": "Clubes Deportivos",
"crs": { "type": "name", "properties": { "name": "urn:ogc:def:crs:OGC:1.3:CRS84" } },
"features": [
{ "type": "Feature", "properties": { "CGM": "Llavallol", "NOMBRE": "Centro Cultural Y Deportivo Dnipro-Alexey-Tolstoy", "TIPO": "CLUBES DEPORTIVOS", "Fecha Vencimiento Reconocimiento": "2026-03-19T00:00:00", "LATITUD": -34.80620434, "LONGITUD": -58.43400646 }, "geometry": { "type": "Point", "coordinates": [ -58.43400646, -34.80620434 ] } },
{ "type": "Feature", "properties": { "CGM": "Lomas", "NOMBRE": "Club 11 De Agosto", "TIPO": "CLUBES DEPORTIVOS", "Fecha Vencimiento Reconocimiento": "2026-03-19T00:00:00", "LATITUD": -34.76961301, "LONGITUD": -58.41684815 }, "geometry": { "type": "Point", "coordinates": [ -58.41684815, -34.76961301 ] } },
{ "type": "Feature", "properties": { "CGM": "San Jose", "NOMBRE": "Club De Box Rona Castro", "TIPO": "CLUBES DEPORTIVOS", "Fecha Vencimiento Reconocimiento": "2026-03-19T00:00:00", "LATITUD": -34.7554014, "LONGITUD": -58.35535886 }, "geometry": { "type": "Point", "coordinates": [ -58.35535886, -34.7554014 ] } },
{ "type": "Feature", "properties": { "CGM": "San Jose", "NOMBRE": "Club Social Cultural Y Deportivo Defensores De Temperley", "TIPO": "CLUBES DEPORTIVOS", "Fecha Vencimiento Reconocimiento": "2026-03-19T00:00:00", "LATITUD": -34.75492527, "LONGITUD": -58.3581317 }, "geometry": { "type": "Point", "coordinates": [ -58.3581317, -34.75492527 ] } },
{ "type": "Feature", "properties": { "CGM": "Santa Catalina", "NOMBRE": "Club Atletico Puya Raimundi", "TIPO": "CLUBES DEPORTIVOS", "Fecha Vencimiento Reconocimiento": "2026-03-19T00:00:00", "LATITUD": -34.74959046, "LONGITUD": -58.46281469 }, "geometry": { "type": "Point", "coordinates": [ -58.46281469, -34.74959046 ] } },
{ "type": "Feature", "properties": { "CGM": "Santa Catalina", "NOMBRE": "Club Social Deportivo Y Cultural Los Chicos De La Colchonera", "TIPO": "CLUBES DEPORTIVOS", "Fecha Vencimiento Reconocimiento": "2026-03-19T00:00:00", "LATITUD": -34.74198594, "LONGITUD": -58.48303776 }, "geometry": { "type": "Point", "coordinates": [ -58.48303776, -34.74198594 ] } },
{ "type": "Feature", "properties": { "CGM": "Villa Lamadrid", "NOMBRE": "Club Social Cultural Y Deportivo E Inclusion Las Primeras De Fiorito", "TIPO": "CLUBES DEPORTIVOS", "Fecha Vencimiento Reconocimiento": "2026-04-19T00:00:00", "LATITUD": -34.72749806, "LONGITUD": -58.46671273 }, "geometry": { "type": "Point", "coordinates": [ -58.46671273, -34.72749806 ] } },
{ "type": "Feature", "properties": { "CGM": "Villa Lamadrid", "NOMBRE": "Club Social Y Deportivo El Globito", "TIPO": "CLUBES DEPORTIVOS", "Fecha Vencimiento Reconocimiento": "2026-04-19T00:00:00", "LATITUD": -34.72749806, "LONGITUD": -58.46671273 }, "geometry": { "type": "Point", "coordinates": [ -58.46671273, -34.72749806 ] } },
{ "type": "Feature", "properties": { "CGM": "Llavallol", "NOMBRE": "Club Social Y Deportivo Defensores De Alto Verde", "TIPO": "CLUBES DEPORTIVOS", "Fecha Vencimiento Reconocimiento": "2026-04-19T00:00:00", "LATITUD": -34.81335175, "LONGITUD": -58.4322875 }, "geometry": { "type": "Point", "coordinates": [ -58.4322875, -34.81335175 ] } },
{ "type": "Feature", "properties": { "CGM": "San Jose", "NOMBRE": "Club Santa Rosa", "TIPO": "CLUBES DEPORTIVOS", "Fecha Vencimiento Reconocimiento": "2026-12-21T00:00:00", "LATITUD": -34.75120672, "LONGITUD": -58.34259896 }, "geometry": { "type": "Point", "coordinates": [ -58.34259896, -34.75120672 ] } },
{ "type": "Feature", "properties": { "CGM": "San Jose", "NOMBRE": "San Geronimo Fc", "TIPO": "CLUBES DEPORTIVOS", "Fecha Vencimiento Reconocimiento": "2026-12-21T00:00:00", "LATITUD": -34.75085091, "LONGITUD": -58.34272978 }, "geometry": { "type": "Point", "coordinates": [ -58.34272978, -34.75085091 ] } },
{ "type": "Feature", "properties": { "CGM": "San Jose", "NOMBRE": "Club Social Y Deportivo Arco Iris", "TIPO": "CLUBES DEPORTIVOS", "Fecha Vencimiento Reconocimiento": "2026-12-21T00:00:00", "LATITUD": -34.74850799, "LONGITUD": -58.34553893 }, "geometry": { "type": "Point", "coordinates": [ -58.34553893, -34.74850799 ] } },
{ "type": "Feature", "properties": { "CGM": "San Jose", "NOMBRE": "Centro Cultural Y Deportivo Team Maza", "TIPO": "CLUBES DEPORTIVOS", "Fecha Vencimiento Reconocimiento": "2026-12-21T00:00:00", "LATITUD": -34.74716107, "LONGITUD": -58.35495962 }, "geometry": { "type": "Point", "coordinates": [ -58.35495962, -34.74716107 ] } },
{ "type": "Feature", "properties": { "CGM": "Santa Catalina", "NOMBRE": "Club De Madres Inter De Lomas De Zamora", "TIPO": "CLUBES DEPORTIVOS", "Fecha Vencimiento Reconocimiento": "2026-12-21T00:00:00", "LATITUD": -34.74444264, "LONGITUD": -58.48460028 }, "geometry": { "type": "Point", "coordinates": [ -58.48460028, -34.74444264 ] } },
{ "type": "Feature", "properties": { "CGM": "Villa Centenario", "NOMBRE": "Club Social 25 De Mayo", "TIPO": "CLUBES DEPORTIVOS", "Fecha Vencimiento Reconocimiento": "2026-12-21T00:00:00", "LATITUD": -34.73204849, "LONGITUD": -58.41816653 }, "geometry": { "type": "Point", "coordinates": [ -58.41816653, -34.73204849 ] } },
{ "type": "Feature", "properties": { "CGM": "Villa Centenario", "NOMBRE": "Club Social Deportivo America De Banfield", "TIPO": "CLUBES DEPORTIVOS", "Fecha Vencimiento Reconocimiento": "2026-12-21T00:00:00", "LATITUD": -34.72761977, "LONGITUD": -58.41882035 }, "geometry": { "type": "Point", "coordinates": [ -58.41882035, -34.72761977 ] } },
{ "type": "Feature", "properties": { "CGM": "Villa Fiorito", "NOMBRE": "Club Social Y Cultural Merendero Los Rojitos", "TIPO": "CLUBES DEPORTIVOS", "Fecha Vencimiento Reconocimiento": "2026-12-21T00:00:00", "LATITUD": -34.71590261, "LONGITUD": -58.43439263 }, "geometry": { "type": "Point", "coordinates": [ -58.43439263, -34.71590261 ] } },
{ "type": "Feature", "properties": { "CGM": "Ingeniero Budge", "NOMBRE": "Club Social Deportivo Y Cultural L.E.B.", "TIPO": "CLUBES DEPORTIVOS", "Fecha Vencimiento Reconocimiento": "2026-12-21T00:00:00", "LATITUD": -34.71425976, "LONGITUD": -58.45727924 }, "geometry": { "type": "Point", "coordinates": [ -58.45727924, -34.71425976 ] } },
{ "type": "Feature", "properties": { "CGM": "Villa Fiorito", "NOMBRE": "Club Social Deportivo Y Cultural 8 De Diciembre Muscadelle", "TIPO": "CLUBES DEPORTIVOS", "Fecha Vencimiento Reconocimiento": "2026-12-21T00:00:00", "LATITUD": -34.70610391, "LONGITUD": -58.45124046 }, "geometry": { "type": "Point", "coordinates": [ -58.45124046, -34.70610391 ] } },
{ "type": "Feature", "properties": { "CGM": "Llavallol", "NOMBRE": "Rugby Social Lomas", "TIPO": "CLUBES DEPORTIVOS", "Fecha Vencimiento Reconocimiento": "2026-12-21T00:00:00", "LATITUD": -34.80306519, "LONGITUD": -58.43081623 }, "geometry": { "type": "Point", "coordinates": [ -58.43081623, -34.80306519 ] } },
{ "type": "Feature", "properties": { "CGM": "Turdera", "NOMBRE": "Club Social Y Deportivo Juventud Obrera", "TIPO": "CLUBES DEPORTIVOS", "Fecha Vencimiento Reconocimiento": "2026-12-21T00:00:00", "LATITUD": -34.79079824, "LONGITUD": -58.39914842 }, "geometry": { "type": "Point", "coordinates": [ -58.39914842, -34.79079824 ] } },
{ "type": "Feature", "properties": { "CGM": "Temperley", "NOMBRE": "Club Social Y Deportivo Almafuerte De Temperley", "TIPO": "CLUBES DEPORTIVOS", "Fecha Vencimiento Reconocimiento": "2026-12-21T00:00:00", "LATITUD": -34.78330622, "LONGITUD": -58.39415463 }, "geometry": { "type": "Point", "coordinates": [ -58.39415463, -34.78330622 ] } },
{ "type": "Feature", "properties": { "CGM": "Temperley", "NOMBRE": "Club Social Y Deportivo Villa Sastre Temperley", "TIPO": "CLUBES DEPORTIVOS", "Fecha Vencimiento Reconocimiento": "2026-12-21T00:00:00", "LATITUD": -34.77120536, "LONGITUD": -58.37604569 }, "geometry": { "type": "Point", "coordinates": [ -58.37604569, -34.77120536 ] } },
{ "type": "Feature", "properties": { "CGM": "Temperley", "NOMBRE": "Centro Recreativo Encuentro Con Amigos C.R.E.C.A", "TIPO": "CLUBES DEPORTIVOS", "Fecha Vencimiento Reconocimiento": "2026-12-21T00:00:00", "LATITUD": -34.77073434, "LONGITUD": -58.39074241 }, "geometry": { "type": "Point", "coordinates": [ -58.39074241, -34.77073434 ] } },
{ "type": "Feature", "properties": { "CGM": "Temperley", "NOMBRE": "Club Juventud Unida De Falucho", "TIPO": "CLUBES DEPORTIVOS", "Fecha Vencimiento Reconocimiento": "2026-12-21T00:00:00", "LATITUD": -34.76937352, "LONGITUD": -58.38936398 }, "geometry": { "type": "Point", "coordinates": [ -58.38936398, -34.76937352 ] } },
{ "type": "Feature", "properties": { "CGM": "San Jose", "NOMBRE": "Asociacion Civil Club Atletico Cultural Deportivo Y Social El Fortin De Temperley", "TIPO": "CLUBES DEPORTIVOS", "Fecha Vencimiento Reconocimiento": "2026-12-21T00:00:00", "LATITUD": -34.76905161, "LONGITUD": -58.36390723 }, "geometry": { "type": "Point", "coordinates": [ -58.36390723, -34.76905161 ] } },
{ "type": "Feature", "properties": { "CGM": "Parque Baron", "NOMBRE": "Club Argentino De Lomas", "TIPO": "CLUBES DEPORTIVOS", "Fecha Vencimiento Reconocimiento": "2026-12-21T00:00:00", "LATITUD": -34.76752006, "LONGITUD": -58.43635634 }, "geometry": { "type": "Point", "coordinates": [ -58.43635634, -34.76752006 ] } },
{ "type": "Feature", "properties": { "CGM": "San Jose", "NOMBRE": "Club Social Cultural Y Deportivo 9 De Julio", "TIPO": "CLUBES DEPORTIVOS", "Fecha Vencimiento Reconocimiento": "2026-12-21T00:00:00", "LATITUD": -34.76583568, "LONGITUD": -58.35912932 }, "geometry": { "type": "Point", "coordinates": [ -58.35912932, -34.76583568 ] } },
{ "type": "Feature", "properties": { "CGM": "Temperley", "NOMBRE": "Club Atletico Progreso", "TIPO": "CLUBES DEPORTIVOS", "Fecha Vencimiento Reconocimiento": "2026-12-21T00:00:00", "LATITUD": -34.76565431, "LONGITUD": -58.39306338 }, "geometry": { "type": "Point", "coordinates": [ -58.39306338, -34.76565431 ] } },
{ "type": "Feature", "properties": { "CGM": "San Jose", "NOMBRE": "Club Social Y Deportivo El Guarani", "TIPO": "CLUBES DEPORTIVOS", "Fecha Vencimiento Reconocimiento": "2026-12-21T00:00:00", "LATITUD": -34.76469832, "LONGITUD": -58.3643997 }, "geometry": { "type": "Point", "coordinates": [ -58.3643997, -34.76469832 ] } },
{ "type": "Feature", "properties": { "CGM": "San Jose", "NOMBRE": "Club Social Cultural Y Deportivo Defensores De San Fernando", "TIPO": "CLUBES DEPORTIVOS", "Fecha Vencimiento Reconocimiento": "2026-12-21T00:00:00", "LATITUD": -34.76434741, "LONGITUD": -58.36975725 }, "geometry": { "type": "Point", "coordinates": [ -58.36975725, -34.76434741 ] } },
{ "type": "Feature", "properties": { "CGM": "San Jose", "NOMBRE": "Club Social Cultural Y Deportivo Union De San Jose", "TIPO": "CLUBES DEPORTIVOS", "Fecha Vencimiento Reconocimiento": "2026-12-21T00:00:00", "LATITUD": -34.76243485, "LONGITUD": -58.36725078 }, "geometry": { "type": "Point", "coordinates": [ -58.36725078, -34.76243485 ] } },
{ "type": "Feature", "properties": { "CGM": "San Jose", "NOMBRE": "Club Social Y Deportivo 21 De Septiembre", "TIPO": "CLUBES DEPORTIVOS", "Fecha Vencimiento Reconocimiento": "2026-12-21T00:00:00", "LATITUD": -34.75804959, "LONGITUD": -58.35637952 }, "geometry": { "type": "Point", "coordinates": [ -58.35637952, -34.75804959 ] } },
{ "type": "Feature", "properties": { "CGM": "Parque Baron", "NOMBRE": "Club Social Y Deportivo El Medio City", "TIPO": "CLUBES DEPORTIVOS", "Fecha Vencimiento Reconocimiento": "2026-12-21T00:00:00", "LATITUD": -34.75617395, "LONGITUD": -58.44735494 }, "geometry": { "type": "Point", "coordinates": [ -58.44735494, -34.75617395 ] } },
{ "type": "Feature", "properties": { "CGM": "Parque Baron", "NOMBRE": "Club Social Y Deportivo Euskadi 2003", "TIPO": "CLUBES DEPORTIVOS", "Fecha Vencimiento Reconocimiento": "2026-12-21T00:00:00", "LATITUD": -34.75617395, "LONGITUD": -58.44735494 }, "geometry": { "type": "Point", "coordinates": [ -58.44735494, -34.75617395 ] } },
{ "type": "Feature", "properties": { "CGM": "San Jose", "NOMBRE": "Club Social Cultural Y Deportivo Unidos De Temperley", "TIPO": "CLUBES DEPORTIVOS", "Fecha Vencimiento Reconocimiento": "2026-12-21T00:00:00", "LATITUD": -34.75511293, "LONGITUD": -58.35797816 }, "geometry": { "type": "Point", "coordinates": [ -58.35797816, -34.75511293 ] } },
{ "type": "Feature", "properties": { "CGM": "San Jose", "NOMBRE": "Asociacion Club Social Y Deportivo Las Perdices", "TIPO": "CLUBES DEPORTIVOS", "Fecha Vencimiento Reconocimiento": "2026-12-21T00:00:00", "LATITUD": -34.75449628, "LONGITUD": -58.36306285 }, "geometry": { "type": "Point", "coordinates": [ -58.36306285, -34.75449628 ] } },
{ "type": "Feature", "properties": { "CGM": "Santa Catalina", "NOMBRE": "Club Social Deportivo Santa Catalina 3 Y Fines", "TIPO": "CLUBES DEPORTIVOS", "Fecha Vencimiento Reconocimiento": "2026-12-21T00:00:00", "LATITUD": -34.75364142, "LONGITUD": -58.47291624 }, "geometry": { "type": "Point", "coordinates": [ -58.47291624, -34.75364142 ] } },
{ "type": "Feature", "properties": { "CGM": "Lomas", "NOMBRE": "Primer Taller De Ajedrez De Lomas De Zamora", "TIPO": "CLUBES DEPORTIVOS", "Fecha Vencimiento Reconocimiento": "2026-12-21T00:00:00", "LATITUD": -34.75316979, "LONGITUD": -58.39345086 }, "geometry": { "type": "Point", "coordinates": [ -58.39345086, -34.75316979 ] } },
{ "type": "Feature", "properties": { "CGM": "San Jose", "NOMBRE": "Club Social Cultural Y Deportivo 16 De Febrero", "TIPO": "CLUBES DEPORTIVOS", "Fecha Vencimiento Reconocimiento": "2026-12-21T00:00:00", "LATITUD": -34.7527502, "LONGITUD": -58.34211437 }, "geometry": { "type": "Point", "coordinates": [ -58.34211437, -34.7527502 ] } },
{ "type": "Feature", "properties": { "CGM": "Santa Marta", "NOMBRE": "Club Social Y Deportivo America Del Sur", "TIPO": "CLUBES DEPORTIVOS", "Fecha Vencimiento Reconocimiento": "2026-12-21T00:00:00", "LATITUD": -34.7519055, "LONGITUD": -58.44342337 }, "geometry": { "type": "Point", "coordinates": [ -58.44342337, -34.7519055 ] } },
{ "type": "Feature", "properties": { "CGM": "Santa Marta", "NOMBRE": "Club Social  Deportivo Y Cultural La Loma Edulfo Herrera Benitez", "TIPO": "CLUBES DEPORTIVOS", "Fecha Vencimiento Reconocimiento": "2026-12-21T00:00:00", "LATITUD": -34.75137512, "LONGITUD": -58.44367182 }, "geometry": { "type": "Point", "coordinates": [ -58.44367182, -34.75137512 ] } },
{ "type": "Feature", "properties": { "CGM": "Santa Marta", "NOMBRE": "Centro Cultural Social Y Deportivo General Las Heras", "TIPO": "CLUBES DEPORTIVOS", "Fecha Vencimiento Reconocimiento": "2026-12-21T00:00:00", "LATITUD": -34.7466621, "LONGITUD": -58.43741094 }, "geometry": { "type": "Point", "coordinates": [ -58.43741094, -34.7466621 ] } },
{ "type": "Feature", "properties": { "CGM": "Villa Albertina", "NOMBRE": "Club Social Y Deportivo La Nueva Agua Mineral", "TIPO": "CLUBES DEPORTIVOS", "Fecha Vencimiento Reconocimiento": "2026-12-21T00:00:00", "LATITUD": -34.74287116, "LONGITUD": -58.45064514 }, "geometry": { "type": "Point", "coordinates": [ -58.45064514, -34.74287116 ] } },
{ "type": "Feature", "properties": { "CGM": "Santa Marta", "NOMBRE": "Club Social Deportivo Y Cultural Sol De Mayo", "TIPO": "CLUBES DEPORTIVOS", "Fecha Vencimiento Reconocimiento": "2026-12-21T00:00:00", "LATITUD": -34.74257331, "LONGITUD": -58.44129759 }, "geometry": { "type": "Point", "coordinates": [ -58.44129759, -34.74257331 ] } },
{ "type": "Feature", "properties": { "CGM": "Banfield", "NOMBRE": "Club Atletico Banfield", "TIPO": "CLUBES DEPORTIVOS", "Fecha Vencimiento Reconocimiento": "2026-12-21T00:00:00", "LATITUD": -34.74127468, "LONGITUD": -58.39405488 }, "geometry": { "type": "Point", "coordinates": [ -58.39405488, -34.74127468 ] } },
{ "type": "Feature", "properties": { "CGM": "Banfield", "NOMBRE": "Country Club Infantil De Banfield", "TIPO": "CLUBES DEPORTIVOS", "Fecha Vencimiento Reconocimiento": "2026-12-21T00:00:00", "LATITUD": -34.74022241, "LONGITUD": -58.39043553 }, "geometry": { "type": "Point", "coordinates": [ -58.39043553, -34.74022241 ] } },
{ "type": "Feature", "properties": { "CGM": "Santa Catalina", "NOMBRE": "Asociacion Civil Los Guardianes De Homero Manzi", "TIPO": "CLUBES DEPORTIVOS", "Fecha Vencimiento Reconocimiento": "2026-12-21T00:00:00", "LATITUD": -34.73576231, "LONGITUD": -58.47372888 }, "geometry": { "type": "Point", "coordinates": [ -58.47372888, -34.73576231 ] } },
{ "type": "Feature", "properties": { "CGM": "Villa Albertina", "NOMBRE": "Club Social Y Deportivo Yo Planto", "TIPO": "CLUBES DEPORTIVOS", "Fecha Vencimiento Reconocimiento": "2026-12-21T00:00:00", "LATITUD": -34.73453509, "LONGITUD": -58.46608976 }, "geometry": { "type": "Point", "coordinates": [ -58.46608976, -34.73453509 ] } },
{ "type": "Feature", "properties": { "CGM": "Villa Albertina", "NOMBRE": "Club Atletico General Paz Social Cultural Y Deportivo", "TIPO": "CLUBES DEPORTIVOS", "Fecha Vencimiento Reconocimiento": "2026-12-21T00:00:00", "LATITUD": -34.73276061, "LONGITUD": -58.45650562 }, "geometry": { "type": "Point", "coordinates": [ -58.45650562, -34.73276061 ] } },
{ "type": "Feature", "properties": { "CGM": "Villa Lamadrid", "NOMBRE": "Club Social Y Deportivo River De Villa Lamadrid", "TIPO": "CLUBES DEPORTIVOS", "Fecha Vencimiento Reconocimiento": "2026-12-21T00:00:00", "LATITUD": -34.72963125, "LONGITUD": -58.46689743 }, "geometry": { "type": "Point", "coordinates": [ -58.46689743, -34.72963125 ] } },
{ "type": "Feature", "properties": { "CGM": "Villa Albertina", "NOMBRE": "Asociacion Civil Sofovima Club Social Y Deportivo", "TIPO": "CLUBES DEPORTIVOS", "Fecha Vencimiento Reconocimiento": "2026-12-21T00:00:00", "LATITUD": -34.72957892, "LONGITUD": -58.44944231 }, "geometry": { "type": "Point", "coordinates": [ -58.44944231, -34.72957892 ] } },
{ "type": "Feature", "properties": { "CGM": "Villa Albertina", "NOMBRE": "Club Social Y Deportivo Los Amigos", "TIPO": "CLUBES DEPORTIVOS", "Fecha Vencimiento Reconocimiento": "2026-12-21T00:00:00", "LATITUD": -34.72739339, "LONGITUD": -58.44702205 }, "geometry": { "type": "Point", "coordinates": [ -58.44702205, -34.72739339 ] } },
{ "type": "Feature", "properties": { "CGM": "Villa Centenario", "NOMBRE": "Club Social  Cultural Y Deportivo Sargento Cabral", "TIPO": "CLUBES DEPORTIVOS", "Fecha Vencimiento Reconocimiento": "2026-12-21T00:00:00", "LATITUD": -34.72525275, "LONGITUD": -58.4302132 }, "geometry": { "type": "Point", "coordinates": [ -58.4302132, -34.72525275 ] } },
{ "type": "Feature", "properties": { "CGM": "Villa Lamadrid", "NOMBRE": "Club Atletico Villa Amelia Social Cultural Y Deportivo", "TIPO": "CLUBES DEPORTIVOS", "Fecha Vencimiento Reconocimiento": "2026-12-21T00:00:00", "LATITUD": -34.72254024, "LONGITUD": -58.47078136 }, "geometry": { "type": "Point", "coordinates": [ -58.47078136, -34.72254024 ] } },
{ "type": "Feature", "properties": { "CGM": "Villa Fiorito", "NOMBRE": "Club Social Cultural Y Deportivo Nuevo 5 De Marzo", "TIPO": "CLUBES DEPORTIVOS", "Fecha Vencimiento Reconocimiento": "2026-12-21T00:00:00", "LATITUD": -34.7188741, "LONGITUD": -58.4420083 }, "geometry": { "type": "Point", "coordinates": [ -58.4420083, -34.7188741 ] } },
{ "type": "Feature", "properties": { "CGM": "Villa Centenario", "NOMBRE": "Asociacion Civil Social Y Cultural Y Deportiva Horang-Yi J.F.", "TIPO": "CLUBES DEPORTIVOS", "Fecha Vencimiento Reconocimiento": "2026-12-21T00:00:00", "LATITUD": -34.71390059, "LONGITUD": -58.42753624 }, "geometry": { "type": "Point", "coordinates": [ -58.42753624, -34.71390059 ] } },
{ "type": "Feature", "properties": { "CGM": "Ingeniero Budge", "NOMBRE": "Escuelita De Futbol Parroquial San Francisco De Paula", "TIPO": "CLUBES DEPORTIVOS", "Fecha Vencimiento Reconocimiento": "2026-12-21T00:00:00", "LATITUD": -34.71160047, "LONGITUD": -58.46199995 }, "geometry": { "type": "Point", "coordinates": [ -58.46199995, -34.71160047 ] } },
{ "type": "Feature", "properties": { "CGM": "Villa Fiorito", "NOMBRE": "Club Social Y Deportivo Latino De Futbol Infantil", "TIPO": "CLUBES DEPORTIVOS", "Fecha Vencimiento Reconocimiento": "2026-12-21T00:00:00", "LATITUD": -34.70986769, "LONGITUD": -58.45162939 }, "geometry": { "type": "Point", "coordinates": [ -58.45162939, -34.70986769 ] } },
{ "type": "Feature", "properties": { "CGM": "Villa Fiorito", "NOMBRE": "Club Pesca Y Caza Fiorito", "TIPO": "CLUBES DEPORTIVOS", "Fecha Vencimiento Reconocimiento": "2026-12-21T00:00:00", "LATITUD": -34.7093329, "LONGITUD": -58.43628149 }, "geometry": { "type": "Point", "coordinates": [ -58.43628149, -34.7093329 ] } },
{ "type": "Feature", "properties": { "CGM": "Villa Fiorito", "NOMBRE": "Club Social Cultural Y Deportivo La Isla", "TIPO": "CLUBES DEPORTIVOS", "Fecha Vencimiento Reconocimiento": "2026-12-21T00:00:00", "LATITUD": -34.70883692, "LONGITUD": -58.43345552 }, "geometry": { "type": "Point", "coordinates": [ -58.43345552, -34.70883692 ] } },
{ "type": "Feature", "properties": { "CGM": "Villa Fiorito", "NOMBRE": "Asociacion Civil Club Social Deportivo Y Cultural El Nuevo Paredon De Fiorito", "TIPO": "CLUBES DEPORTIVOS", "Fecha Vencimiento Reconocimiento": "2026-12-21T00:00:00", "LATITUD": -34.70419374, "LONGITUD": -58.43947637 }, "geometry": { "type": "Point", "coordinates": [ -58.43947637, -34.70419374 ] } },
{ "type": "Feature", "properties": { "CGM": "Villa Fiorito", "NOMBRE": "C.S.C.Y.D. Petete Y La Tucu", "TIPO": "CLUBES DEPORTIVOS", "Fecha Vencimiento Reconocimiento": "2026-12-21T00:00:00", "LATITUD": -34.69930685, "LONGITUD": -58.44642585 }, "geometry": { "type": "Point", "coordinates": [ -58.44642585, -34.69930685 ] } },
{ "type": "Feature", "properties": { "CGM": "San Jose", "NOMBRE": "Club Social Cultural Y Deportivo Rioplatense", "TIPO": "CLUBES DEPORTIVOS", "Fecha Vencimiento Reconocimiento": "2026-12-21T00:00:00", "LATITUD": -34.746141, "LONGITUD": -58.35002923 }, "geometry": { "type": "Point", "coordinates": [ -58.35002923, -34.746141 ] } },
{ "type": "Feature", "properties": { "CGM": "Ingeniero Budge", "NOMBRE": "Club Social Cultural Y Deportivo Dorrego", "TIPO": "CLUBES DEPORTIVOS", "Fecha Vencimiento Reconocimiento": "2026-12-21T00:00:00", "LATITUD": -34.71464585, "LONGITUD": -58.45663253 }, "geometry": { "type": "Point", "coordinates": [ -58.45663253, -34.71464585 ] } },
{ "type": "Feature", "properties": { "CGM": "Villa Fiorito", "NOMBRE": "Club Social Cultural Y Deportivo San Juan", "TIPO": "CLUBES DEPORTIVOS", "Fecha Vencimiento Reconocimiento": "2026-12-21T00:00:00", "LATITUD": -34.70856972, "LONGITUD": -58.44102255 }, "geometry": { "type": "Point", "coordinates": [ -58.44102255, -34.70856972 ] } },
{ "type": "Feature", "properties": { "CGM": "Villa Fiorito", "NOMBRE": "Club Social Cultural Y Deportivo 22 De Febrero De Fiorito", "TIPO": "CLUBES DEPORTIVOS", "Fecha Vencimiento Reconocimiento": "2026-12-21T00:00:00", "LATITUD": -34.70557107, "LONGITUD": -58.44231259 }, "geometry": { "type": "Point", "coordinates": [ -58.44231259, -34.70557107 ] } },
{ "type": "Feature", "properties": { "CGM": "Villa Fiorito", "NOMBRE": "Club Social Y Deportivo Estrellas Unidas De Fiorito", "TIPO": "CLUBES DEPORTIVOS", "Fecha Vencimiento Reconocimiento": "2026-12-21T00:00:00", "LATITUD": -34.70302846, "LONGITUD": -58.44512609 }, "geometry": { "type": "Point", "coordinates": [ -58.44512609, -34.70302846 ] } },
{ "type": "Feature", "properties": { "CGM": "Banfield", "NOMBRE": "Gazcon Lawn Tennis Club", "TIPO": "CLUBES DEPORTIVOS", "Fecha Vencimiento Reconocimiento": "2026-12-21T00:00:00", "LATITUD": -34.74360298, "LONGITUD": -58.40425104 }, "geometry": { "type": "Point", "coordinates": [ -58.40425104, -34.74360298 ] } },
{ "type": "Feature", "properties": { "CGM": "Santa Marta", "NOMBRE": "Asociacion Civil Centro Cultural Social Y Deportivo V Rita De Lomas", "TIPO": "CLUBES DEPORTIVOS", "Fecha Vencimiento Reconocimiento": "2026-12-21T00:00:00", "LATITUD": -34.7473653, "LONGITUD": -58.43157863 }, "geometry": { "type": "Point", "coordinates": [ -58.43157863, -34.7473653 ] } },
{ "type": "Feature", "properties": { "CGM": "Llavallol", "NOMBRE": "Club Atletico Social Y Deportivo Juventud Unida De Llavallol", "TIPO": "CLUBES DEPORTIVOS", "Fecha Vencimiento Reconocimiento": "2026-12-21T00:00:00", "LATITUD": -34.801521, "LONGITUD": -58.431742 }, "geometry": { "type": "Point", "coordinates": [ -58.431742, -34.801521 ] } },
{ "type": "Feature", "properties": { "CGM": "Llavallol", "NOMBRE": "Club Atletico Llavallol", "TIPO": "CLUBES DEPORTIVOS", "Fecha Vencimiento Reconocimiento": "2026-12-21T00:00:00", "LATITUD": -34.794789, "LONGITUD": -58.431273 }, "geometry": { "type": "Point", "coordinates": [ -58.431273, -34.794789 ] } },
{ "type": "Feature", "properties": { "CGM": "Turdera", "NOMBRE": "Taekwon-Do Asociacion Civil Provincial Lomas De Zamora", "TIPO": "CLUBES DEPORTIVOS", "Fecha Vencimiento Reconocimiento": "2026-12-21T00:00:00", "LATITUD": -34.792115, "LONGITUD": -58.403306 }, "geometry": { "type": "Point", "coordinates": [ -58.403306, -34.792115 ] } },
{ "type": "Feature", "properties": { "CGM": "Temperley", "NOMBRE": "Club Social Y Deportivo El Fortin De Rivarola", "TIPO": "CLUBES DEPORTIVOS", "Fecha Vencimiento Reconocimiento": "2026-12-21T00:00:00", "LATITUD": -34.782176, "LONGITUD": -58.418173 }, "geometry": { "type": "Point", "coordinates": [ -58.418173, -34.782176 ] } },
{ "type": "Feature", "properties": { "CGM": "Temperley", "NOMBRE": "Club Social Cultural Y Deportivo La Makina", "TIPO": "CLUBES DEPORTIVOS", "Fecha Vencimiento Reconocimiento": "2026-12-21T00:00:00", "LATITUD": -34.781184, "LONGITUD": -58.409032 }, "geometry": { "type": "Point", "coordinates": [ -58.409032, -34.781184 ] } },
{ "type": "Feature", "properties": { "CGM": "Temperley", "NOMBRE": "Club Social Y Deportivo Rosedal", "TIPO": "CLUBES DEPORTIVOS", "Fecha Vencimiento Reconocimiento": "2026-12-21T00:00:00", "LATITUD": -34.780206, "LONGITUD": -58.406775 }, "geometry": { "type": "Point", "coordinates": [ -58.406775, -34.780206 ] } },
{ "type": "Feature", "properties": { "CGM": "Temperley", "NOMBRE": "Sociedad Deportiva Y Cultural Juventud Del Sud", "TIPO": "CLUBES DEPORTIVOS", "Fecha Vencimiento Reconocimiento": "2026-12-21T00:00:00", "LATITUD": -34.776731, "LONGITUD": -58.379209 }, "geometry": { "type": "Point", "coordinates": [ -58.379209, -34.776731 ] } },
{ "type": "Feature", "properties": { "CGM": "Parque Baron", "NOMBRE": "Asociacion De Boxeadores Unidos De Lomas De Zamora", "TIPO": "CLUBES DEPORTIVOS", "Fecha Vencimiento Reconocimiento": "2026-12-21T00:00:00", "LATITUD": -34.776696, "LONGITUD": -58.43052 }, "geometry": { "type": "Point", "coordinates": [ -58.43052, -34.776696 ] } },
{ "type": "Feature", "properties": { "CGM": "Parque Baron", "NOMBRE": "Nuestro Barrio Centro Cultural Social Y Deportivo", "TIPO": "CLUBES DEPORTIVOS", "Fecha Vencimiento Reconocimiento": "2026-12-21T00:00:00", "LATITUD": -34.775131, "LONGITUD": -58.455927 }, "geometry": { "type": "Point", "coordinates": [ -58.455927, -34.775131 ] } },
{ "type": "Feature", "properties": { "CGM": "Temperley", "NOMBRE": "Colon Futbol Club", "TIPO": "CLUBES DEPORTIVOS", "Fecha Vencimiento Reconocimiento": "2026-12-21T00:00:00", "LATITUD": -34.775035, "LONGITUD": -58.388069 }, "geometry": { "type": "Point", "coordinates": [ -58.388069, -34.775035 ] } },
{ "type": "Feature", "properties": { "CGM": "Temperley", "NOMBRE": "Club Social Ingles", "TIPO": "CLUBES DEPORTIVOS", "Fecha Vencimiento Reconocimiento": "2026-12-21T00:00:00", "LATITUD": -34.774165, "LONGITUD": -58.393615 }, "geometry": { "type": "Point", "coordinates": [ -58.393615, -34.774165 ] } },
{ "type": "Feature", "properties": { "CGM": "Parque Baron", "NOMBRE": "Centro Cultural Y Deportivo 25 De Mayo", "TIPO": "CLUBES DEPORTIVOS", "Fecha Vencimiento Reconocimiento": "2026-12-21T00:00:00", "LATITUD": -34.773456, "LONGITUD": -58.451875 }, "geometry": { "type": "Point", "coordinates": [ -58.451875, -34.773456 ] } },
{ "type": "Feature", "properties": { "CGM": "Lomas", "NOMBRE": "Club Social Cultural Recreativo Y Deportivo Los Unicos Lomenses", "TIPO": "CLUBES DEPORTIVOS", "Fecha Vencimiento Reconocimiento": "2026-12-21T00:00:00", "LATITUD": -34.770671, "LONGITUD": -58.423572 }, "geometry": { "type": "Point", "coordinates": [ -58.423572, -34.770671 ] } },
{ "type": "Feature", "properties": { "CGM": "Temperley", "NOMBRE": "Temperley Lawn Tennis Club", "TIPO": "CLUBES DEPORTIVOS", "Fecha Vencimiento Reconocimiento": "2026-12-21T00:00:00", "LATITUD": -34.770408, "LONGITUD": -58.393909 }, "geometry": { "type": "Point", "coordinates": [ -58.393909, -34.770408 ] } },
{ "type": "Feature", "properties": { "CGM": "Lomas", "NOMBRE": "Club Social Y Deportivo Parque Del Rey De Lomas De Zamora", "TIPO": "CLUBES DEPORTIVOS", "Fecha Vencimiento Reconocimiento": "2026-12-21T00:00:00", "LATITUD": -34.769288, "LONGITUD": -58.425988 }, "geometry": { "type": "Point", "coordinates": [ -58.425988, -34.769288 ] } },
{ "type": "Feature", "properties": { "CGM": "Lomas", "NOMBRE": "Club Social Y Deportivo Cultural", "TIPO": "CLUBES DEPORTIVOS", "Fecha Vencimiento Reconocimiento": "2026-12-21T00:00:00", "LATITUD": -34.767244, "LONGITUD": -58.410224 }, "geometry": { "type": "Point", "coordinates": [ -58.410224, -34.767244 ] } },
{ "type": "Feature", "properties": { "CGM": "Lomas", "NOMBRE": "Club Atletico Los Andes", "TIPO": "CLUBES DEPORTIVOS", "Fecha Vencimiento Reconocimiento": "2026-12-21T00:00:00", "LATITUD": -34.766858, "LONGITUD": -58.404233 }, "geometry": { "type": "Point", "coordinates": [ -58.404233, -34.766858 ] } },
{ "type": "Feature", "properties": { "CGM": "Lomas", "NOMBRE": "Club Atletico Olimpia", "TIPO": "CLUBES DEPORTIVOS", "Fecha Vencimiento Reconocimiento": "2026-12-21T00:00:00", "LATITUD": -34.766678, "LONGITUD": -58.406627 }, "geometry": { "type": "Point", "coordinates": [ -58.406627, -34.766678 ] } },
{ "type": "Feature", "properties": { "CGM": "Parque Baron", "NOMBRE": "Club Social Y Deportivo Santa Fe", "TIPO": "CLUBES DEPORTIVOS", "Fecha Vencimiento Reconocimiento": "2026-12-21T00:00:00", "LATITUD": -34.765814, "LONGITUD": -58.444669 }, "geometry": { "type": "Point", "coordinates": [ -58.444669, -34.765814 ] } },
{ "type": "Feature", "properties": { "CGM": "Temperley", "NOMBRE": "Club Social Y Deportivo Ituzaingo", "TIPO": "CLUBES DEPORTIVOS", "Fecha Vencimiento Reconocimiento": "2026-12-21T00:00:00", "LATITUD": -34.764683, "LONGITUD": -58.381619 }, "geometry": { "type": "Point", "coordinates": [ -58.381619, -34.764683 ] } },
{ "type": "Feature", "properties": { "CGM": "Lomas", "NOMBRE": "Club Social Y Deportivo Gimnasia Y Esgrima De Lomas De Zamora", "TIPO": "CLUBES DEPORTIVOS", "Fecha Vencimiento Reconocimiento": "2026-12-21T00:00:00", "LATITUD": -34.762586, "LONGITUD": -58.391243 }, "geometry": { "type": "Point", "coordinates": [ -58.391243, -34.762586 ] } },
{ "type": "Feature", "properties": { "CGM": "Lomas", "NOMBRE": "Club Social Y Deportivo 12 De Octubre", "TIPO": "CLUBES DEPORTIVOS", "Fecha Vencimiento Reconocimiento": "2026-12-21T00:00:00", "LATITUD": -34.762088, "LONGITUD": -58.414505 }, "geometry": { "type": "Point", "coordinates": [ -58.414505, -34.762088 ] } },
{ "type": "Feature", "properties": { "CGM": "Parque Baron", "NOMBRE": "Escuela De Boxeo Diego La Bestia Sanabria", "TIPO": "CLUBES DEPORTIVOS", "Fecha Vencimiento Reconocimiento": "2026-12-21T00:00:00", "LATITUD": -34.761988, "LONGITUD": -58.442401 }, "geometry": { "type": "Point", "coordinates": [ -58.442401, -34.761988 ] } },
{ "type": "Feature", "properties": { "CGM": "Temperley", "NOMBRE": "Club Social Cultural Y Deportivo El Porvenir De Villa Galicia", "TIPO": "CLUBES DEPORTIVOS", "Fecha Vencimiento Reconocimiento": "2026-12-21T00:00:00", "LATITUD": -34.760933, "LONGITUD": -58.377529 }, "geometry": { "type": "Point", "coordinates": [ -58.377529, -34.760933 ] } },
{ "type": "Feature", "properties": { "CGM": "Lomas", "NOMBRE": "Club Atletico Social Almafuerte", "TIPO": "CLUBES DEPORTIVOS", "Fecha Vencimiento Reconocimiento": "2026-12-21T00:00:00", "LATITUD": -34.760134, "LONGITUD": -58.411694 }, "geometry": { "type": "Point", "coordinates": [ -58.411694, -34.760134 ] } },
{ "type": "Feature", "properties": { "CGM": "Lomas", "NOMBRE": "Club De Pescadores De Lomas De Zamora", "TIPO": "CLUBES DEPORTIVOS", "Fecha Vencimiento Reconocimiento": "2026-12-21T00:00:00", "LATITUD": -34.760101, "LONGITUD": -58.409891 }, "geometry": { "type": "Point", "coordinates": [ -58.409891, -34.760101 ] } },
{ "type": "Feature", "properties": { "CGM": "Lomas", "NOMBRE": "Club Social Y Deportivo Las Lomas", "TIPO": "CLUBES DEPORTIVOS", "Fecha Vencimiento Reconocimiento": "2026-12-21T00:00:00", "LATITUD": -34.760044, "LONGITUD": -58.421991 }, "geometry": { "type": "Point", "coordinates": [ -58.421991, -34.760044 ] } },
{ "type": "Feature", "properties": { "CGM": "Lomas", "NOMBRE": "Asociacion De Handball Femenino De Lomas De Zamora", "TIPO": "CLUBES DEPORTIVOS", "Fecha Vencimiento Reconocimiento": "2026-12-21T00:00:00", "LATITUD": -34.758075, "LONGITUD": -58.405111 }, "geometry": { "type": "Point", "coordinates": [ -58.405111, -34.758075 ] } },
{ "type": "Feature", "properties": { "CGM": "Lomas", "NOMBRE": "Club De Ajedrez Deportivo Lomas", "TIPO": "CLUBES DEPORTIVOS", "Fecha Vencimiento Reconocimiento": "2026-12-21T00:00:00", "LATITUD": -34.758075, "LONGITUD": -58.405111 }, "geometry": { "type": "Point", "coordinates": [ -58.405111, -34.758075 ] } },
{ "type": "Feature", "properties": { "CGM": "Temperley", "NOMBRE": "Club Social Cultural Y Deportivo Juventud Unida", "TIPO": "CLUBES DEPORTIVOS", "Fecha Vencimiento Reconocimiento": "2026-12-21T00:00:00", "LATITUD": -34.758012, "LONGITUD": -58.37973 }, "geometry": { "type": "Point", "coordinates": [ -58.37973, -34.758012 ] } },
{ "type": "Feature", "properties": { "CGM": "Lomas", "NOMBRE": "Club Social Cultural Deportivo Y De Formacion 6 De Agosto", "TIPO": "CLUBES DEPORTIVOS", "Fecha Vencimiento Reconocimiento": "2026-12-21T00:00:00", "LATITUD": -34.757962, "LONGITUD": -58.402791 }, "geometry": { "type": "Point", "coordinates": [ -58.402791, -34.757962 ] } },
{ "type": "Feature", "properties": { "CGM": "Parque Baron", "NOMBRE": "Futbol Infantil El Ciclon De Lomas", "TIPO": "CLUBES DEPORTIVOS", "Fecha Vencimiento Reconocimiento": "2026-12-21T00:00:00", "LATITUD": -34.757354, "LONGITUD": -58.439058 }, "geometry": { "type": "Point", "coordinates": [ -58.439058, -34.757354 ] } },
{ "type": "Feature", "properties": { "CGM": "Lomas", "NOMBRE": "Napoli Societa Sportiva", "TIPO": "CLUBES DEPORTIVOS", "Fecha Vencimiento Reconocimiento": "2026-12-21T00:00:00", "LATITUD": -34.756901, "LONGITUD": -58.428209 }, "geometry": { "type": "Point", "coordinates": [ -58.428209, -34.756901 ] } },
{ "type": "Feature", "properties": { "CGM": "San Jose", "NOMBRE": "Club Social Y Deportivo Cabana San Jose Oeste", "TIPO": "CLUBES DEPORTIVOS", "Fecha Vencimiento Reconocimiento": "2026-12-21T00:00:00", "LATITUD": -34.756386, "LONGITUD": -58.359966 }, "geometry": { "type": "Point", "coordinates": [ -58.359966, -34.756386 ] } },
{ "type": "Feature", "properties": { "CGM": "San Jose", "NOMBRE": "Club Atletico San Cristobal", "TIPO": "CLUBES DEPORTIVOS", "Fecha Vencimiento Reconocimiento": "2026-12-21T00:00:00", "LATITUD": -34.755121, "LONGITUD": -58.344803 }, "geometry": { "type": "Point", "coordinates": [ -58.344803, -34.755121 ] } },
{ "type": "Feature", "properties": { "CGM": "Lomas", "NOMBRE": "Centro Deportivo Y Cultural Residentes Chaquenos En Buenos Aires", "TIPO": "CLUBES DEPORTIVOS", "Fecha Vencimiento Reconocimiento": "2026-12-21T00:00:00", "LATITUD": -34.754535, "LONGITUD": -58.406027 }, "geometry": { "type": "Point", "coordinates": [ -58.406027, -34.754535 ] } },
{ "type": "Feature", "properties": { "CGM": "San Jose", "NOMBRE": "La Escuelita San Jose", "TIPO": "CLUBES DEPORTIVOS", "Fecha Vencimiento Reconocimiento": "2026-12-21T00:00:00", "LATITUD": -34.754487, "LONGITUD": -58.35995 }, "geometry": { "type": "Point", "coordinates": [ -58.35995, -34.754487 ] } },
{ "type": "Feature", "properties": { "CGM": "Parque Baron", "NOMBRE": "Club Social Y Deportivo La Soledad", "TIPO": "CLUBES DEPORTIVOS", "Fecha Vencimiento Reconocimiento": "2026-12-21T00:00:00", "LATITUD": -34.753564, "LONGITUD": -58.444869 }, "geometry": { "type": "Point", "coordinates": [ -58.444869, -34.753564 ] } },
{ "type": "Feature", "properties": { "CGM": "San Jose", "NOMBRE": "Club Social Cultural Y Deportivo Cacheyra", "TIPO": "CLUBES DEPORTIVOS", "Fecha Vencimiento Reconocimiento": "2026-12-21T00:00:00", "LATITUD": -34.753478, "LONGITUD": -58.360078 }, "geometry": { "type": "Point", "coordinates": [ -58.360078, -34.753478 ] } },
{ "type": "Feature", "properties": { "CGM": "Banfield", "NOMBRE": "Union Nacional De Clubes De Barrio Filial Lomas De Zamora", "TIPO": "CLUBES DEPORTIVOS", "Fecha Vencimiento Reconocimiento": "2026-12-21T00:00:00", "LATITUD": -34.752923, "LONGITUD": -58.372845 }, "geometry": { "type": "Point", "coordinates": [ -58.372845, -34.752923 ] } },
{ "type": "Feature", "properties": { "CGM": "San Jose", "NOMBRE": "Club Social Deportivo Y Futbol Infantil Sampdoria", "TIPO": "CLUBES DEPORTIVOS", "Fecha Vencimiento Reconocimiento": "2026-12-21T00:00:00", "LATITUD": -34.752753, "LONGITUD": -58.342913 }, "geometry": { "type": "Point", "coordinates": [ -58.342913, -34.752753 ] } },
{ "type": "Feature", "properties": { "CGM": "Lomas", "NOMBRE": "Club Social Y Deportivo Para Siempre", "TIPO": "CLUBES DEPORTIVOS", "Fecha Vencimiento Reconocimiento": "2026-12-21T00:00:00", "LATITUD": -34.752722, "LONGITUD": -58.3874 }, "geometry": { "type": "Point", "coordinates": [ -58.3874, -34.752722 ] } },
{ "type": "Feature", "properties": { "CGM": "Lomas", "NOMBRE": "Club Social Y Deportivo Laprida Lomas", "TIPO": "CLUBES DEPORTIVOS", "Fecha Vencimiento Reconocimiento": "2026-12-21T00:00:00", "LATITUD": -34.752201, "LONGITUD": -58.42899 }, "geometry": { "type": "Point", "coordinates": [ -58.42899, -34.752201 ] } },
{ "type": "Feature", "properties": { "CGM": "Lomas", "NOMBRE": "Club Atletico Las Casitas De Llavallol", "TIPO": "CLUBES DEPORTIVOS", "Fecha Vencimiento Reconocimiento": "2026-12-21T00:00:00", "LATITUD": -34.751823, "LONGITUD": -58.427949 }, "geometry": { "type": "Point", "coordinates": [ -58.427949, -34.751823 ] } },
{ "type": "Feature", "properties": { "CGM": "Santa Marta", "NOMBRE": "Asociacion Civil Social Cultural Y Deportiva Edfel Lomas", "TIPO": "CLUBES DEPORTIVOS", "Fecha Vencimiento Reconocimiento": "2026-12-21T00:00:00", "LATITUD": -34.750636, "LONGITUD": -58.454729 }, "geometry": { "type": "Point", "coordinates": [ -58.454729, -34.750636 ] } },
{ "type": "Feature", "properties": { "CGM": "Santa Marta", "NOMBRE": "Futbol Infantil El Progreso", "TIPO": "CLUBES DEPORTIVOS", "Fecha Vencimiento Reconocimiento": "2026-12-21T00:00:00", "LATITUD": -34.750394, "LONGITUD": -58.441252 }, "geometry": { "type": "Point", "coordinates": [ -58.441252, -34.750394 ] } },
{ "type": "Feature", "properties": { "CGM": "Lomas", "NOMBRE": "Futbol Rivera", "TIPO": "CLUBES DEPORTIVOS", "Fecha Vencimiento Reconocimiento": "2026-12-21T00:00:00", "LATITUD": -34.749403, "LONGITUD": -58.422541 }, "geometry": { "type": "Point", "coordinates": [ -58.422541, -34.749403 ] } },
{ "type": "Feature", "properties": { "CGM": "Lomas", "NOMBRE": "Lomas Social Club", "TIPO": "CLUBES DEPORTIVOS", "Fecha Vencimiento Reconocimiento": "2026-12-21T00:00:00", "LATITUD": -34.749313, "LONGITUD": -58.403906 }, "geometry": { "type": "Point", "coordinates": [ -58.403906, -34.749313 ] } },
{ "type": "Feature", "properties": { "CGM": "Lomas", "NOMBRE": "Club Social Y Deportivo Defensores De Villa Niza", "TIPO": "CLUBES DEPORTIVOS", "Fecha Vencimiento Reconocimiento": "2026-12-21T00:00:00", "LATITUD": -34.749285, "LONGITUD": -58.411325 }, "geometry": { "type": "Point", "coordinates": [ -58.411325, -34.749285 ] } },
{ "type": "Feature", "properties": { "CGM": "Santa Marta", "NOMBRE": "Club Nacional Y Popular Deportivo Social", "TIPO": "CLUBES DEPORTIVOS", "Fecha Vencimiento Reconocimiento": "2026-12-21T00:00:00", "LATITUD": -34.747707, "LONGITUD": -58.455737 }, "geometry": { "type": "Point", "coordinates": [ -58.455737, -34.747707 ] } },
{ "type": "Feature", "properties": { "CGM": "Santa Marta", "NOMBRE": "Sociedad De Fomento El Faro", "TIPO": "CLUBES DEPORTIVOS", "Fecha Vencimiento Reconocimiento": "2026-12-21T00:00:00", "LATITUD": -34.745579, "LONGITUD": -58.441733 }, "geometry": { "type": "Point", "coordinates": [ -58.441733, -34.745579 ] } },
{ "type": "Feature", "properties": { "CGM": "Santa Marta", "NOMBRE": "Club La Loma", "TIPO": "CLUBES DEPORTIVOS", "Fecha Vencimiento Reconocimiento": "2026-12-21T00:00:00", "LATITUD": -34.744388, "LONGITUD": -58.42988 }, "geometry": { "type": "Point", "coordinates": [ -58.42988, -34.744388 ] } },
{ "type": "Feature", "properties": { "CGM": "Villa Albertina", "NOMBRE": "Club Social Y Deportivo Nacional De Villa Albertina", "TIPO": "CLUBES DEPORTIVOS", "Fecha Vencimiento Reconocimiento": "2026-12-21T00:00:00", "LATITUD": -34.743958, "LONGITUD": -58.455563 }, "geometry": { "type": "Point", "coordinates": [ -58.455563, -34.743958 ] } },
{ "type": "Feature", "properties": { "CGM": "Santa Marta", "NOMBRE": "Centro Cultural Y Social Deportivo El Camino Del Dragon", "TIPO": "CLUBES DEPORTIVOS", "Fecha Vencimiento Reconocimiento": "2026-12-21T00:00:00", "LATITUD": -34.743521, "LONGITUD": -58.439436 }, "geometry": { "type": "Point", "coordinates": [ -58.439436, -34.743521 ] } },
{ "type": "Feature", "properties": { "CGM": "Santa Marta", "NOMBRE": "Club Social Y Deportivo 11 De Septiembre", "TIPO": "CLUBES DEPORTIVOS", "Fecha Vencimiento Reconocimiento": "2026-12-21T00:00:00", "LATITUD": -34.743109, "LONGITUD": -58.441486 }, "geometry": { "type": "Point", "coordinates": [ -58.441486, -34.743109 ] } },
{ "type": "Feature", "properties": { "CGM": "Banfield", "NOMBRE": "Cludias", "TIPO": "CLUBES DEPORTIVOS", "Fecha Vencimiento Reconocimiento": "2026-12-21T00:00:00", "LATITUD": -34.743004, "LONGITUD": -58.382908 }, "geometry": { "type": "Point", "coordinates": [ -58.382908, -34.743004 ] } },
{ "type": "Feature", "properties": { "CGM": "Banfield", "NOMBRE": "Club Social Buchardo", "TIPO": "CLUBES DEPORTIVOS", "Fecha Vencimiento Reconocimiento": "2026-12-21T00:00:00", "LATITUD": -34.742617, "LONGITUD": -58.393313 }, "geometry": { "type": "Point", "coordinates": [ -58.393313, -34.742617 ] } },
{ "type": "Feature", "properties": { "CGM": "Banfield", "NOMBRE": "Club De Pesca Y Caza Banfield", "TIPO": "CLUBES DEPORTIVOS", "Fecha Vencimiento Reconocimiento": "2026-12-21T00:00:00", "LATITUD": -34.742484, "LONGITUD": -58.393333 }, "geometry": { "type": "Point", "coordinates": [ -58.393333, -34.742484 ] } },
{ "type": "Feature", "properties": { "CGM": "Santa Marta", "NOMBRE": "Club Social Las Heras", "TIPO": "CLUBES DEPORTIVOS", "Fecha Vencimiento Reconocimiento": "2026-12-21T00:00:00", "LATITUD": -34.742388, "LONGITUD": -58.442541 }, "geometry": { "type": "Point", "coordinates": [ -58.442541, -34.742388 ] } },
{ "type": "Feature", "properties": { "CGM": "Santa Marta", "NOMBRE": "Club Social Y Deportivo 17 De Noviembre", "TIPO": "CLUBES DEPORTIVOS", "Fecha Vencimiento Reconocimiento": "2026-12-21T00:00:00", "LATITUD": -34.741806, "LONGITUD": -58.436442 }, "geometry": { "type": "Point", "coordinates": [ -58.436442, -34.741806 ] } },
{ "type": "Feature", "properties": { "CGM": "Villa Albertina", "NOMBRE": "Club Juventud Albertina", "TIPO": "CLUBES DEPORTIVOS", "Fecha Vencimiento Reconocimiento": "2026-12-21T00:00:00", "LATITUD": -34.740559, "LONGITUD": -58.45861 }, "geometry": { "type": "Point", "coordinates": [ -58.45861, -34.740559 ] } },
{ "type": "Feature", "properties": { "CGM": "Villa Albertina", "NOMBRE": "Club Union De Villa Albertina", "TIPO": "CLUBES DEPORTIVOS", "Fecha Vencimiento Reconocimiento": "2026-12-21T00:00:00", "LATITUD": -34.740332, "LONGITUD": -58.461035 }, "geometry": { "type": "Point", "coordinates": [ -58.461035, -34.740332 ] } },
{ "type": "Feature", "properties": { "CGM": "Santa Marta", "NOMBRE": "Asociacion De Futbol Infantil El Bosque", "TIPO": "CLUBES DEPORTIVOS", "Fecha Vencimiento Reconocimiento": "2026-12-21T00:00:00", "LATITUD": -34.740203, "LONGITUD": -58.440135 }, "geometry": { "type": "Point", "coordinates": [ -58.440135, -34.740203 ] } },
{ "type": "Feature", "properties": { "CGM": "Banfield", "NOMBRE": "Club Social Y Deportivo Defensores De Banfield", "TIPO": "CLUBES DEPORTIVOS", "Fecha Vencimiento Reconocimiento": "2026-12-21T00:00:00", "LATITUD": -34.740165, "LONGITUD": -58.407236 }, "geometry": { "type": "Point", "coordinates": [ -58.407236, -34.740165 ] } },
{ "type": "Feature", "properties": { "CGM": "Banfield", "NOMBRE": "Mil Flores Hockey Social", "TIPO": "CLUBES DEPORTIVOS", "Fecha Vencimiento Reconocimiento": "2026-12-21T00:00:00", "LATITUD": -34.739843, "LONGITUD": -58.398679 }, "geometry": { "type": "Point", "coordinates": [ -58.398679, -34.739843 ] } },
{ "type": "Feature", "properties": { "CGM": "Villa Albertina", "NOMBRE": "Club Social Deportivo Y Cultural Almafuerte De Villa Albertina", "TIPO": "CLUBES DEPORTIVOS", "Fecha Vencimiento Reconocimiento": "2026-12-21T00:00:00", "LATITUD": -34.737989, "LONGITUD": -58.463537 }, "geometry": { "type": "Point", "coordinates": [ -58.463537, -34.737989 ] } },
{ "type": "Feature", "properties": { "CGM": "Villa Albertina", "NOMBRE": "Club Deportivo Y Social Rawson De Banfield", "TIPO": "CLUBES DEPORTIVOS", "Fecha Vencimiento Reconocimiento": "2026-12-21T00:00:00", "LATITUD": -34.736869, "LONGITUD": -58.442824 }, "geometry": { "type": "Point", "coordinates": [ -58.442824, -34.736869 ] } },
{ "type": "Feature", "properties": { "CGM": "Santa Catalina", "NOMBRE": "Club Social Cultural Y Deportivo Rincon", "TIPO": "CLUBES DEPORTIVOS", "Fecha Vencimiento Reconocimiento": "2026-12-21T00:00:00", "LATITUD": -34.736388, "LONGITUD": -58.481592 }, "geometry": { "type": "Point", "coordinates": [ -58.481592, -34.736388 ] } },
{ "type": "Feature", "properties": { "CGM": "Villa Albertina", "NOMBRE": "Club Social Deportivo Y Cultural La Mision De Villa Constitucion Lomas De Zamora", "TIPO": "CLUBES DEPORTIVOS", "Fecha Vencimiento Reconocimiento": "2026-12-21T00:00:00", "LATITUD": -34.735595, "LONGITUD": -58.454483 }, "geometry": { "type": "Point", "coordinates": [ -58.454483, -34.735595 ] } },
{ "type": "Feature", "properties": { "CGM": "Villa Albertina", "NOMBRE": "Club Social Y Deportivo El Corcho", "TIPO": "CLUBES DEPORTIVOS", "Fecha Vencimiento Reconocimiento": "2026-12-21T00:00:00", "LATITUD": -34.735595, "LONGITUD": -58.454483 }, "geometry": { "type": "Point", "coordinates": [ -58.454483, -34.735595 ] } },
{ "type": "Feature", "properties": { "CGM": "Villa Albertina", "NOMBRE": "Club Taekwondo Banfield Oficial", "TIPO": "CLUBES DEPORTIVOS", "Fecha Vencimiento Reconocimiento": "2026-12-21T00:00:00", "LATITUD": -34.735587, "LONGITUD": -58.445035 }, "geometry": { "type": "Point", "coordinates": [ -58.445035, -34.735587 ] } },
{ "type": "Feature", "properties": { "CGM": "Banfield", "NOMBRE": "Circulo Social Y Cultural Italiano Michelangelo", "TIPO": "CLUBES DEPORTIVOS", "Fecha Vencimiento Reconocimiento": "2026-12-21T00:00:00", "LATITUD": -34.735309, "LONGITUD": -58.408107 }, "geometry": { "type": "Point", "coordinates": [ -58.408107, -34.735309 ] } },
{ "type": "Feature", "properties": { "CGM": "Villa Albertina", "NOMBRE": "Club Social Cultural Y Deportivo Los Leones", "TIPO": "CLUBES DEPORTIVOS", "Fecha Vencimiento Reconocimiento": "2026-12-21T00:00:00", "LATITUD": -34.734496, "LONGITUD": -58.462541 }, "geometry": { "type": "Point", "coordinates": [ -58.462541, -34.734496 ] } },
{ "type": "Feature", "properties": { "CGM": "Villa Centenario", "NOMBRE": "Futbol Infantil Villa Centenario", "TIPO": "CLUBES DEPORTIVOS", "Fecha Vencimiento Reconocimiento": "2026-12-21T00:00:00", "LATITUD": -34.730838, "LONGITUD": -58.429462 }, "geometry": { "type": "Point", "coordinates": [ -58.429462, -34.730838 ] } },
{ "type": "Feature", "properties": { "CGM": "Villa Albertina", "NOMBRE": "Club Social Y Deportivo La Sub 21", "TIPO": "CLUBES DEPORTIVOS", "Fecha Vencimiento Reconocimiento": "2026-12-21T00:00:00", "LATITUD": -34.730002, "LONGITUD": -58.45381 }, "geometry": { "type": "Point", "coordinates": [ -58.45381, -34.730002 ] } },
{ "type": "Feature", "properties": { "CGM": "Villa Centenario", "NOMBRE": "Club Social Y Deportivo Bujia", "TIPO": "CLUBES DEPORTIVOS", "Fecha Vencimiento Reconocimiento": "2026-12-21T00:00:00", "LATITUD": -34.729817, "LONGITUD": -58.427547 }, "geometry": { "type": "Point", "coordinates": [ -58.427547, -34.729817 ] } },
{ "type": "Feature", "properties": { "CGM": "Ingeniero Budge", "NOMBRE": "Club Social Y Deportivo Gauchito Gil", "TIPO": "CLUBES DEPORTIVOS", "Fecha Vencimiento Reconocimiento": "2026-12-21T00:00:00", "LATITUD": -34.729611, "LONGITUD": -58.455562 }, "geometry": { "type": "Point", "coordinates": [ -58.455562, -34.729611 ] } },
{ "type": "Feature", "properties": { "CGM": "Ingeniero Budge", "NOMBRE": "Polideportivo Mi Barrio", "TIPO": "CLUBES DEPORTIVOS", "Fecha Vencimiento Reconocimiento": "2026-12-21T00:00:00", "LATITUD": -34.729611, "LONGITUD": -58.455562 }, "geometry": { "type": "Point", "coordinates": [ -58.455562, -34.729611 ] } },
{ "type": "Feature", "properties": { "CGM": "Ingeniero Budge", "NOMBRE": "Club Social Cultural Y Deportivo Nuevo 20 De Junio", "TIPO": "CLUBES DEPORTIVOS", "Fecha Vencimiento Reconocimiento": "2026-12-21T00:00:00", "LATITUD": -34.728984, "LONGITUD": -58.454341 }, "geometry": { "type": "Point", "coordinates": [ -58.454341, -34.728984 ] } },
{ "type": "Feature", "properties": { "CGM": "Villa Lamadrid", "NOMBRE": "Club Social Y Deportivo Vicenta Tinte", "TIPO": "CLUBES DEPORTIVOS", "Fecha Vencimiento Reconocimiento": "2026-12-21T00:00:00", "LATITUD": -34.728789, "LONGITUD": -58.479634 }, "geometry": { "type": "Point", "coordinates": [ -58.479634, -34.728789 ] } },
{ "type": "Feature", "properties": { "CGM": "Villa Lamadrid", "NOMBRE": "Asociacion Civil Social Cultural Y Deportivo  Lamadrid", "TIPO": "CLUBES DEPORTIVOS", "Fecha Vencimiento Reconocimiento": "2026-12-21T00:00:00", "LATITUD": -34.727069, "LONGITUD": -58.482414 }, "geometry": { "type": "Point", "coordinates": [ -58.482414, -34.727069 ] } },
{ "type": "Feature", "properties": { "CGM": "Ingeniero Budge", "NOMBRE": "Lucero Hockey Club", "TIPO": "CLUBES DEPORTIVOS", "Fecha Vencimiento Reconocimiento": "2026-12-21T00:00:00", "LATITUD": -34.724527, "LONGITUD": -58.461116 }, "geometry": { "type": "Point", "coordinates": [ -58.461116, -34.724527 ] } },
{ "type": "Feature", "properties": { "CGM": "Ingeniero Budge", "NOMBRE": "Nueva Era Futbol Club", "TIPO": "CLUBES DEPORTIVOS", "Fecha Vencimiento Reconocimiento": "2026-12-21T00:00:00", "LATITUD": -34.721648, "LONGITUD": -58.457916 }, "geometry": { "type": "Point", "coordinates": [ -58.457916, -34.721648 ] } },
{ "type": "Feature", "properties": { "CGM": "Villa Centenario", "NOMBRE": "El Porvenir", "TIPO": "CLUBES DEPORTIVOS", "Fecha Vencimiento Reconocimiento": "2026-12-21T00:00:00", "LATITUD": -34.720581, "LONGITUD": -58.438987 }, "geometry": { "type": "Point", "coordinates": [ -58.438987, -34.720581 ] } },
{ "type": "Feature", "properties": { "CGM": "Villa Centenario", "NOMBRE": "Club Social San Jose", "TIPO": "CLUBES DEPORTIVOS", "Fecha Vencimiento Reconocimiento": "2026-12-21T00:00:00", "LATITUD": -34.719939, "LONGITUD": -58.437804 }, "geometry": { "type": "Point", "coordinates": [ -58.437804, -34.719939 ] } },
{ "type": "Feature", "properties": { "CGM": "Ingeniero Budge", "NOMBRE": "Club Social Y Cultural Y Deportivo Generacion 2000", "TIPO": "CLUBES DEPORTIVOS", "Fecha Vencimiento Reconocimiento": "2026-12-21T00:00:00", "LATITUD": -34.719438, "LONGITUD": -58.459329 }, "geometry": { "type": "Point", "coordinates": [ -58.459329, -34.719438 ] } },
{ "type": "Feature", "properties": { "CGM": "Ingeniero Budge", "NOMBRE": "Liga Infantil Unidos Del Sur L.I.U.D.S.", "TIPO": "CLUBES DEPORTIVOS", "Fecha Vencimiento Reconocimiento": "2026-12-21T00:00:00", "LATITUD": -34.719438, "LONGITUD": -58.459329 }, "geometry": { "type": "Point", "coordinates": [ -58.459329, -34.719438 ] } },
{ "type": "Feature", "properties": { "CGM": "Ingeniero Budge", "NOMBRE": "Club Social Cultural Y Deportivo 100 Anos De Ing. Budge", "TIPO": "CLUBES DEPORTIVOS", "Fecha Vencimiento Reconocimiento": "2026-12-21T00:00:00", "LATITUD": -34.718894, "LONGITUD": -58.462412 }, "geometry": { "type": "Point", "coordinates": [ -58.462412, -34.718894 ] } },
{ "type": "Feature", "properties": { "CGM": "Villa Centenario", "NOMBRE": "Juventud Unida De Fiorito", "TIPO": "CLUBES DEPORTIVOS", "Fecha Vencimiento Reconocimiento": "2026-12-21T00:00:00", "LATITUD": -34.718254, "LONGITUD": -58.43455 }, "geometry": { "type": "Point", "coordinates": [ -58.43455, -34.718254 ] } },
{ "type": "Feature", "properties": { "CGM": "Ingeniero Budge", "NOMBRE": "Escuelita La Banda Del Sur", "TIPO": "CLUBES DEPORTIVOS", "Fecha Vencimiento Reconocimiento": "2026-12-21T00:00:00", "LATITUD": -34.715409, "LONGITUD": -58.467036 }, "geometry": { "type": "Point", "coordinates": [ -58.467036, -34.715409 ] } },
{ "type": "Feature", "properties": { "CGM": "Ingeniero Budge", "NOMBRE": "Club Social Cultural Y Deportivo Amigos De Ingeniero Budge", "TIPO": "CLUBES DEPORTIVOS", "Fecha Vencimiento Reconocimiento": "2026-12-21T00:00:00", "LATITUD": -34.715023, "LONGITUD": -58.467351 }, "geometry": { "type": "Point", "coordinates": [ -58.467351, -34.715023 ] } },
{ "type": "Feature", "properties": { "CGM": "Villa Fiorito", "NOMBRE": "Club Social Cultural Y Deportivo Diego Armando Maradona", "TIPO": "CLUBES DEPORTIVOS", "Fecha Vencimiento Reconocimiento": "2026-12-21T00:00:00", "LATITUD": -34.707205, "LONGITUD": -58.45083 }, "geometry": { "type": "Point", "coordinates": [ -58.45083, -34.707205 ] } },
{ "type": "Feature", "properties": { "CGM": "Villa Fiorito", "NOMBRE": "Club Social Y Deportivo La Pandilla De Fiorito", "TIPO": "CLUBES DEPORTIVOS", "Fecha Vencimiento Reconocimiento": "2026-12-21T00:00:00", "LATITUD": -34.699846, "LONGITUD": -58.442703 }, "geometry": { "type": "Point", "coordinates": [ -58.442703, -34.699846 ] } },
{ "type": "Feature", "properties": { "CGM": "Temperley", "NOMBRE": "Club Social Y Deportivo La Perla", "TIPO": "CLUBES DEPORTIVOS", "Fecha Vencimiento Reconocimiento": "2026-12-21T00:00:00", "LATITUD": -34.78001, "LONGITUD": -58.382464 }, "geometry": { "type": "Point", "coordinates": [ -58.382464, -34.78001 ] } },
{ "type": "Feature", "properties": { "CGM": "Temperley", "NOMBRE": "Lomas Club Ciclista", "TIPO": "CLUBES DEPORTIVOS", "Fecha Vencimiento Reconocimiento": "2026-12-21T00:00:00", "LATITUD": -34.76316, "LONGITUD": -58.382746 }, "geometry": { "type": "Point", "coordinates": [ -58.382746, -34.76316 ] } },
{ "type": "Feature", "properties": { "CGM": "San Jose", "NOMBRE": "San Jose Futsal Club", "TIPO": "CLUBES DEPORTIVOS", "Fecha Vencimiento Reconocimiento": "2026-12-21T00:00:00", "LATITUD": -34.76286, "LONGITUD": -58.368156 }, "geometry": { "type": "Point", "coordinates": [ -58.368156, -34.76286 ] } },
{ "type": "Feature", "properties": { "CGM": "Temperley", "NOMBRE": "Asociacion De Pesca Y Lanzamiento Villa Galicia", "TIPO": "CLUBES DEPORTIVOS", "Fecha Vencimiento Reconocimiento": "2026-12-21T00:00:00", "LATITUD": -34.75862, "LONGITUD": -58.38086 }, "geometry": { "type": "Point", "coordinates": [ -58.38086, -34.75862 ] } },
{ "type": "Feature", "properties": { "CGM": "Lomas", "NOMBRE": "Club Social Y Deportivo El Huracan De Lomas", "TIPO": "CLUBES DEPORTIVOS", "Fecha Vencimiento Reconocimiento": "2026-12-21T00:00:00", "LATITUD": -34.75786, "LONGITUD": -58.415954 }, "geometry": { "type": "Point", "coordinates": [ -58.415954, -34.75786 ] } },
{ "type": "Feature", "properties": { "CGM": "San Jose", "NOMBRE": "Social Deportivo Casuarinas", "TIPO": "CLUBES DEPORTIVOS", "Fecha Vencimiento Reconocimiento": "2026-12-21T00:00:00", "LATITUD": -34.75162, "LONGITUD": -58.359523 }, "geometry": { "type": "Point", "coordinates": [ -58.359523, -34.75162 ] } },
{ "type": "Feature", "properties": { "CGM": "Banfield", "NOMBRE": "Club Social Y Deportivo Los Piedras", "TIPO": "CLUBES DEPORTIVOS", "Fecha Vencimiento Reconocimiento": "2026-12-21T00:00:00", "LATITUD": -34.74232, "LONGITUD": -58.424816 }, "geometry": { "type": "Point", "coordinates": [ -58.424816, -34.74232 ] } },
{ "type": "Feature", "properties": { "CGM": "Villa Albertina", "NOMBRE": "Defensores De Villa Albertina", "TIPO": "CLUBES DEPORTIVOS", "Fecha Vencimiento Reconocimiento": "2026-12-21T00:00:00", "LATITUD": -34.73635, "LONGITUD": -58.461013 }, "geometry": { "type": "Point", "coordinates": [ -58.461013, -34.73635 ] } },
{ "type": "Feature", "properties": { "CGM": "Santa Catalina", "NOMBRE": "Centro Cultural Deportivo El Cardenal", "TIPO": "CLUBES DEPORTIVOS", "Fecha Vencimiento Reconocimiento": "2026-12-21T00:00:00", "LATITUD": -34.73597, "LONGITUD": -58.473729 }, "geometry": { "type": "Point", "coordinates": [ -58.473729, -34.73597 ] } },
{ "type": "Feature", "properties": { "CGM": "Villa Lamadrid", "NOMBRE": "Asociacion Cultural Y Deportiva 23 De Marzo", "TIPO": "CLUBES DEPORTIVOS", "Fecha Vencimiento Reconocimiento": "2026-12-21T00:00:00", "LATITUD": -34.73032, "LONGITUD": -58.473188 }, "geometry": { "type": "Point", "coordinates": [ -58.473188, -34.73032 ] } },
{ "type": "Feature", "properties": { "CGM": "Villa Albertina", "NOMBRE": "Deportivo Saint Martin 09 Futbol Club Asociacion Civil", "TIPO": "CLUBES DEPORTIVOS", "Fecha Vencimiento Reconocimiento": "2026-12-21T00:00:00", "LATITUD": -34.72925, "LONGITUD": -58.448359 }, "geometry": { "type": "Point", "coordinates": [ -58.448359, -34.72925 ] } },
{ "type": "Feature", "properties": { "CGM": "Banfield", "NOMBRE": "Las Brisas", "TIPO": "CLUBES DEPORTIVOS", "Fecha Vencimiento Reconocimiento": "2026-12-21T00:00:00", "LATITUD": -34.7548, "LONGITUD": -58.374253 }, "geometry": { "type": "Point", "coordinates": [ -58.374253, -34.7548 ] } },
{ "type": "Feature", "properties": { "CGM": "Santa Marta", "NOMBRE": "Club Social Y Deportivo San Martin Del Progreso", "TIPO": "CLUBES DEPORTIVOS", "Fecha Vencimiento Reconocimiento": "2026-12-21T00:00:00", "LATITUD": -34.7516, "LONGITUD": -58.443539 }, "geometry": { "type": "Point", "coordinates": [ -58.443539, -34.7516 ] } },
{ "type": "Feature", "properties": { "CGM": "Temperley", "NOMBRE": "A. Civil Club Atletico Cultural Deportivo Y Social El Fortin De Temperley", "TIPO": "CLUBES DEPORTIVOS", "Fecha Vencimiento Reconocimiento": "2026-12-21T00:00:00", "LATITUD": -34.78004343, "LONGITUD": -58.4146965 }, "geometry": { "type": "Point", "coordinates": [ -58.4146965, -34.78004343 ] } },
{ "type": "Feature", "properties": { "CGM": "Villa Fiorito", "NOMBRE": "A. Civil Club Social Deportivo Y Cultural El Nuevo Paredon De Fiorito ", "TIPO": "CLUBES DEPORTIVOS", "Fecha Vencimiento Reconocimiento": "2026-12-21T00:00:00", "LATITUD": -34.70396209, "LONGITUD": -58.43947012 }, "geometry": { "type": "Point", "coordinates": [ -58.43947012, -34.70396209 ] } },
{ "type": "Feature", "properties": { "CGM": "Villa Albertina", "NOMBRE": "Almafuerte De Villa Albertina. ", "TIPO": "CLUBES DEPORTIVOS", "Fecha Vencimiento Reconocimiento": "2026-12-21T00:00:00", "LATITUD": -34.73710154, "LONGITUD": -58.46063379 }, "geometry": { "type": "Point", "coordinates": [ -58.46063379, -34.73710154 ] } },
{ "type": "Feature", "properties": { "CGM": "Santa Catalina", "NOMBRE": "Club 30 De Agosto", "TIPO": "CLUBES DEPORTIVOS", "Fecha Vencimiento Reconocimiento": "2026-12-21T00:00:00", "LATITUD": -34.73684082, "LONGITUD": -58.48853259 }, "geometry": { "type": "Point", "coordinates": [ -58.48853259, -34.73684082 ] } },
{ "type": "Feature", "properties": { "CGM": "Temperley", "NOMBRE": "Club Atletico Temperley", "TIPO": "CLUBES DEPORTIVOS", "Fecha Vencimiento Reconocimiento": "2026-12-21T00:00:00", "LATITUD": -34.78127107, "LONGITUD": -58.39934531 }, "geometry": { "type": "Point", "coordinates": [ -58.39934531, -34.78127107 ] } },
{ "type": "Feature", "properties": { "CGM": "Lomas", "NOMBRE": "Club Atletico Y Social Almafuerte", "TIPO": "CLUBES DEPORTIVOS", "Fecha Vencimiento Reconocimiento": "2026-12-21T00:00:00", "LATITUD": -34.7601673, "LONGITUD": -58.4116944 }, "geometry": { "type": "Point", "coordinates": [ -58.4116944, -34.7601673 ] } },
{ "type": "Feature", "properties": { "CGM": "Villa Albertina", "NOMBRE": "Club Defensores Del Tongui", "TIPO": "CLUBES DEPORTIVOS", "Fecha Vencimiento Reconocimiento": "2026-12-21T00:00:00", "LATITUD": -34.73245204, "LONGITUD": -58.44681836 }, "geometry": { "type": "Point", "coordinates": [ -58.44681836, -34.73245204 ] } },
{ "type": "Feature", "properties": { "CGM": "Santa Catalina", "NOMBRE": "Club Deportivo Defensores De Nuñez", "TIPO": "CLUBES DEPORTIVOS", "Fecha Vencimiento Reconocimiento": "2026-12-21T00:00:00", "LATITUD": -34.7349894, "LONGITUD": -58.4883718 }, "geometry": { "type": "Point", "coordinates": [ -58.4883718, -34.7349894 ] } },
{ "type": "Feature", "properties": { "CGM": "Ingeniero Budge", "NOMBRE": "Club Deportivo Tongui", "TIPO": "CLUBES DEPORTIVOS", "Fecha Vencimiento Reconocimiento": "2026-12-21T00:00:00", "LATITUD": -34.72321515, "LONGITUD": -58.45196245 }, "geometry": { "type": "Point", "coordinates": [ -58.45196245, -34.72321515 ] } },
{ "type": "Feature", "properties": { "CGM": "Santa Marta", "NOMBRE": "Club El Progreso", "TIPO": "CLUBES DEPORTIVOS", "Fecha Vencimiento Reconocimiento": "2026-12-21T00:00:00", "LATITUD": -34.75149319, "LONGITUD": -58.44373338 }, "geometry": { "type": "Point", "coordinates": [ -58.44373338, -34.75149319 ] } },
{ "type": "Feature", "properties": { "CGM": "Parque Baron", "NOMBRE": "Club Franchino", "TIPO": "CLUBES DEPORTIVOS", "Fecha Vencimiento Reconocimiento": "2026-12-21T00:00:00", "LATITUD": -34.7630001, "LONGITUD": -58.43687926 }, "geometry": { "type": "Point", "coordinates": [ -58.43687926, -34.7630001 ] } },
{ "type": "Feature", "properties": { "CGM": "San Jose", "NOMBRE": "Club La Escuelita", "TIPO": "CLUBES DEPORTIVOS", "Fecha Vencimiento Reconocimiento": "2026-12-21T00:00:00", "LATITUD": -34.75275746, "LONGITUD": -58.34296568 }, "geometry": { "type": "Point", "coordinates": [ -58.34296568, -34.75275746 ] } },
{ "type": "Feature", "properties": { "CGM": "Villa Albertina", "NOMBRE": "Club La Nueva Estrella", "TIPO": "CLUBES DEPORTIVOS", "Fecha Vencimiento Reconocimiento": "2026-12-21T00:00:00", "LATITUD": -34.73597721, "LONGITUD": -58.46154133 }, "geometry": { "type": "Point", "coordinates": [ -58.46154133, -34.73597721 ] } },
{ "type": "Feature", "properties": { "CGM": "Lomas", "NOMBRE": "Club S Y D 12 De Octubre", "TIPO": "CLUBES DEPORTIVOS", "Fecha Vencimiento Reconocimiento": "2026-12-21T00:00:00", "LATITUD": -34.76205242, "LONGITUD": -58.41452616 }, "geometry": { "type": "Point", "coordinates": [ -58.41452616, -34.76205242 ] } },
{ "type": "Feature", "properties": { "CGM": "Lomas", "NOMBRE": "Club Social Arabe", "TIPO": "CLUBES DEPORTIVOS", "Fecha Vencimiento Reconocimiento": "2026-12-21T00:00:00", "LATITUD": -34.75676326, "LONGITUD": -58.39587471 }, "geometry": { "type": "Point", "coordinates": [ -58.39587471, -34.75676326 ] } },
{ "type": "Feature", "properties": { "CGM": "Ingeniero Budge", "NOMBRE": "Club Social Cultural Y Deportivo 20 De Junio De Ingeniero Budge", "TIPO": "CLUBES DEPORTIVOS", "Fecha Vencimiento Reconocimiento": "2026-12-21T00:00:00", "LATITUD": -34.72366202, "LONGITUD": -58.45859478 }, "geometry": { "type": "Point", "coordinates": [ -58.45859478, -34.72366202 ] } },
{ "type": "Feature", "properties": { "CGM": "San Jose", "NOMBRE": "Club Social Cultural Y Deportivo Alianza San Juan", "TIPO": "CLUBES DEPORTIVOS", "Fecha Vencimiento Reconocimiento": "2026-12-21T00:00:00", "LATITUD": -34.75198887, "LONGITUD": -58.3454458 }, "geometry": { "type": "Point", "coordinates": [ -58.3454458, -34.75198887 ] } },
{ "type": "Feature", "properties": { "CGM": "Villa Centenario", "NOMBRE": "Club Social Cultural Y Deportivo Sargento Cabral", "TIPO": "CLUBES DEPORTIVOS", "Fecha Vencimiento Reconocimiento": "2026-12-21T00:00:00", "LATITUD": -34.72491648, "LONGITUD": -58.4294334 }, "geometry": { "type": "Point", "coordinates": [ -58.4294334, -34.72491648 ] } },
{ "type": "Feature", "properties": { "CGM": "Santa Catalina", "NOMBRE": "Club Social Deportivo Juan Domingo Peron Y Fines", "TIPO": "CLUBES DEPORTIVOS", "Fecha Vencimiento Reconocimiento": "2026-12-21T00:00:00", "LATITUD": -34.73639022, "LONGITUD": -58.49010205 }, "geometry": { "type": "Point", "coordinates": [ -58.49010205, -34.73639022 ] } },
{ "type": "Feature", "properties": { "CGM": "Lomas", "NOMBRE": "Club Social Deportivo Y Cultural Cordoba", "TIPO": "CLUBES DEPORTIVOS", "Fecha Vencimiento Reconocimiento": "2026-12-21T00:00:00", "LATITUD": -34.75251636, "LONGITUD": -58.41642965 }, "geometry": { "type": "Point", "coordinates": [ -58.41642965, -34.75251636 ] } },
{ "type": "Feature", "properties": { "CGM": "Parque Baron", "NOMBRE": "Club Social Deportivo Y Cultural Falucho", "TIPO": "CLUBES DEPORTIVOS", "Fecha Vencimiento Reconocimiento": "2026-12-21T00:00:00", "LATITUD": -34.75837166, "LONGITUD": -58.43979311 }, "geometry": { "type": "Point", "coordinates": [ -58.43979311, -34.75837166 ] } },
{ "type": "Feature", "properties": { "CGM": "Parque Baron", "NOMBRE": "Club Social Y Deportivo Barrio Nocito", "TIPO": "CLUBES DEPORTIVOS", "Fecha Vencimiento Reconocimiento": "2026-12-21T00:00:00", "LATITUD": -34.75242399, "LONGITUD": -58.43993662 }, "geometry": { "type": "Point", "coordinates": [ -58.43993662, -34.75242399 ] } },
{ "type": "Feature", "properties": { "CGM": "Santa Marta", "NOMBRE": "Club Social Y Deportivo Chicago", "TIPO": "CLUBES DEPORTIVOS", "Fecha Vencimiento Reconocimiento": "2026-12-21T00:00:00", "LATITUD": -34.74284869, "LONGITUD": -58.44104865 }, "geometry": { "type": "Point", "coordinates": [ -58.44104865, -34.74284869 ] } },
{ "type": "Feature", "properties": { "CGM": "Santa Catalina", "NOMBRE": "Club Social Y Deportivo El Obrero ", "TIPO": "CLUBES DEPORTIVOS", "Fecha Vencimiento Reconocimiento": "2026-12-21T00:00:00", "LATITUD": -34.74835823, "LONGITUD": -58.46534798 }, "geometry": { "type": "Point", "coordinates": [ -58.46534798, -34.74835823 ] } },
{ "type": "Feature", "properties": { "CGM": "Llavallol", "NOMBRE": "Club Social Y Deportivo Juvenil De Llavallol", "TIPO": "CLUBES DEPORTIVOS", "Fecha Vencimiento Reconocimiento": "2026-12-21T00:00:00", "LATITUD": -34.79891126, "LONGITUD": -58.42277278 }, "geometry": { "type": "Point", "coordinates": [ -58.42277278, -34.79891126 ] } },
{ "type": "Feature", "properties": { "CGM": "Villa Fiorito", "NOMBRE": "Club Social Y Deportivo Juventud Unida De Fiorito", "TIPO": "CLUBES DEPORTIVOS", "Fecha Vencimiento Reconocimiento": "2026-12-21T00:00:00", "LATITUD": -34.71185077, "LONGITUD": -58.4394612 }, "geometry": { "type": "Point", "coordinates": [ -58.4394612, -34.71185077 ] } },
{ "type": "Feature", "properties": { "CGM": "Santa Catalina", "NOMBRE": "Club Social Y Deportivo La Diagonal ", "TIPO": "CLUBES DEPORTIVOS", "Fecha Vencimiento Reconocimiento": "2026-12-21T00:00:00", "LATITUD": -34.7396798, "LONGITUD": -58.4853328 }, "geometry": { "type": "Point", "coordinates": [ -58.4853328, -34.7396798 ] } },
{ "type": "Feature", "properties": { "CGM": "Santa Catalina", "NOMBRE": "Club Social Y Deportivo La Yupanki", "TIPO": "CLUBES DEPORTIVOS", "Fecha Vencimiento Reconocimiento": "2026-12-21T00:00:00", "LATITUD": -34.74490851, "LONGITUD": -58.47668435 }, "geometry": { "type": "Point", "coordinates": [ -58.47668435, -34.74490851 ] } },
{ "type": "Feature", "properties": { "CGM": "Banfield", "NOMBRE": "Club Social Y Deportivo Las Piedras", "TIPO": "CLUBES DEPORTIVOS", "Fecha Vencimiento Reconocimiento": "2026-12-21T00:00:00", "LATITUD": -34.74231627, "LONGITUD": -58.42483879 }, "geometry": { "type": "Point", "coordinates": [ -58.42483879, -34.74231627 ] } },
{ "type": "Feature", "properties": { "CGM": "Santa Catalina", "NOMBRE": "Club Social Y Deportivo Mariscal Sucre", "TIPO": "CLUBES DEPORTIVOS", "Fecha Vencimiento Reconocimiento": "2026-12-21T00:00:00", "LATITUD": -34.74555467, "LONGITUD": -58.46430838 }, "geometry": { "type": "Point", "coordinates": [ -58.46430838, -34.74555467 ] } },
{ "type": "Feature", "properties": { "CGM": "Lomas", "NOMBRE": "Club Social Y Deportivo Rio Del Sud", "TIPO": "CLUBES DEPORTIVOS", "Fecha Vencimiento Reconocimiento": "2026-12-21T00:00:00", "LATITUD": -34.75077385, "LONGITUD": -58.40869578 }, "geometry": { "type": "Point", "coordinates": [ -58.40869578, -34.75077385 ] } },
{ "type": "Feature", "properties": { "CGM": "Villa Albertina", "NOMBRE": "Club Social Y Deportivo Sarmiento", "TIPO": "CLUBES DEPORTIVOS", "Fecha Vencimiento Reconocimiento": "2026-12-21T00:00:00", "LATITUD": -34.74526969, "LONGITUD": -58.45161906 }, "geometry": { "type": "Point", "coordinates": [ -58.45161906, -34.74526969 ] } },
{ "type": "Feature", "properties": { "CGM": "Santa Catalina", "NOMBRE": "Club Social Y Deportivo Toti", "TIPO": "CLUBES DEPORTIVOS", "Fecha Vencimiento Reconocimiento": "2026-12-21T00:00:00", "LATITUD": -34.75389139, "LONGITUD": -58.46899279 }, "geometry": { "type": "Point", "coordinates": [ -58.46899279, -34.75389139 ] } },
{ "type": "Feature", "properties": { "CGM": "Villa Fiorito", "NOMBRE": "Club Social Y Deportivo Union De Chicos Gauchitos", "TIPO": "CLUBES DEPORTIVOS", "Fecha Vencimiento Reconocimiento": "2026-12-21T00:00:00", "LATITUD": -34.69755848, "LONGITUD": -58.4411451 }, "geometry": { "type": "Point", "coordinates": [ -58.4411451, -34.69755848 ] } },
{ "type": "Feature", "properties": { "CGM": "Villa Lamadrid", "NOMBRE": "Club Unidos Por Villa Constitucion", "TIPO": "CLUBES DEPORTIVOS", "Fecha Vencimiento Reconocimiento": "2026-12-21T00:00:00", "LATITUD": -34.71823721, "LONGITUD": -58.47089989 }, "geometry": { "type": "Point", "coordinates": [ -58.47089989, -34.71823721 ] } },
{ "type": "Feature", "properties": { "CGM": "Villa Centenario", "NOMBRE": "Comision De Futbol Infantil El Tizon", "TIPO": "CLUBES DEPORTIVOS", "Fecha Vencimiento Reconocimiento": "2026-12-21T00:00:00", "LATITUD": -34.72732047, "LONGITUD": -58.4350962 }, "geometry": { "type": "Point", "coordinates": [ -58.4350962, -34.72732047 ] } },
{ "type": "Feature", "properties": { "CGM": "Temperley", "NOMBRE": "El Glorioso Puente (Villa Rey)", "TIPO": "CLUBES DEPORTIVOS", "Fecha Vencimiento Reconocimiento": "2026-12-21T00:00:00", "LATITUD": -34.78364722, "LONGITUD": -58.42159578 }, "geometry": { "type": "Point", "coordinates": [ -58.42159578, -34.78364722 ] } },
{ "type": "Feature", "properties": { "CGM": "Santa Catalina", "NOMBRE": "Genesis Fc", "TIPO": "CLUBES DEPORTIVOS", "Fecha Vencimiento Reconocimiento": "2026-12-21T00:00:00", "LATITUD": -34.73434792, "LONGITUD": -58.48506309 }, "geometry": { "type": "Point", "coordinates": [ -58.48506309, -34.73434792 ] } },
{ "type": "Feature", "properties": { "CGM": "Ingeniero Budge", "NOMBRE": "La Chola Junior", "TIPO": "CLUBES DEPORTIVOS", "Fecha Vencimiento Reconocimiento": "2026-12-21T00:00:00", "LATITUD": -34.70863857, "LONGITUD": -58.4602403 }, "geometry": { "type": "Point", "coordinates": [ -58.4602403, -34.70863857 ] } },
{ "type": "Feature", "properties": { "CGM": "Ingeniero Budge", "NOMBRE": "La Isla", "TIPO": "CLUBES DEPORTIVOS", "Fecha Vencimiento Reconocimiento": "2026-12-21T00:00:00", "LATITUD": -34.72382113, "LONGITUD": -58.44672655 }, "geometry": { "type": "Point", "coordinates": [ -58.44672655, -34.72382113 ] } },
{ "type": "Feature", "properties": { "CGM": "Lomas", "NOMBRE": "La Querencia", "TIPO": "CLUBES DEPORTIVOS", "Fecha Vencimiento Reconocimiento": "2026-12-21T00:00:00", "LATITUD": -34.76839732, "LONGITUD": -58.42339455 }, "geometry": { "type": "Point", "coordinates": [ -58.42339455, -34.76839732 ] } },
{ "type": "Feature", "properties": { "CGM": "Lomas", "NOMBRE": "Lomas Athletic Club Asociacion Civil", "TIPO": "CLUBES DEPORTIVOS", "Fecha Vencimiento Reconocimiento": "2026-12-21T00:00:00", "LATITUD": -34.75448615, "LONGITUD": -58.38780332 }, "geometry": { "type": "Point", "coordinates": [ -58.38780332, -34.75448615 ] } },
{ "type": "Feature", "properties": { "CGM": "Ingeniero Budge", "NOMBRE": "Lomitas Futbol Club", "TIPO": "CLUBES DEPORTIVOS", "Fecha Vencimiento Reconocimiento": "2026-12-21T00:00:00", "LATITUD": -34.71425861, "LONGITUD": -58.45658301 }, "geometry": { "type": "Point", "coordinates": [ -58.45658301, -34.71425861 ] } },
{ "type": "Feature", "properties": { "CGM": "Santa Catalina", "NOMBRE": "Los Chakes", "TIPO": "CLUBES DEPORTIVOS", "Fecha Vencimiento Reconocimiento": "2026-12-21T00:00:00", "LATITUD": -34.74576021, "LONGITUD": -58.46868748 }, "geometry": { "type": "Point", "coordinates": [ -58.46868748, -34.74576021 ] } },
{ "type": "Feature", "properties": { "CGM": "Santa Catalina", "NOMBRE": "Los Petakos", "TIPO": "CLUBES DEPORTIVOS", "Fecha Vencimiento Reconocimiento": "2026-12-21T00:00:00", "LATITUD": -34.74696034, "LONGITUD": -58.48252063 }, "geometry": { "type": "Point", "coordinates": [ -58.48252063, -34.74696034 ] } },
{ "type": "Feature", "properties": { "CGM": "Villa Albertina", "NOMBRE": "Los Pibes De Newells De Villa Albertina", "TIPO": "CLUBES DEPORTIVOS", "Fecha Vencimiento Reconocimiento": "2026-12-21T00:00:00", "LATITUD": -34.73650224, "LONGITUD": -58.46119588 }, "geometry": { "type": "Point", "coordinates": [ -58.46119588, -34.73650224 ] } },
{ "type": "Feature", "properties": { "CGM": "Santa Marta", "NOMBRE": "Olmos Futbol Club ", "TIPO": "CLUBES DEPORTIVOS", "Fecha Vencimiento Reconocimiento": "2026-12-21T00:00:00", "LATITUD": -34.74569794, "LONGITUD": -58.45245319 }, "geometry": { "type": "Point", "coordinates": [ -58.45245319, -34.74569794 ] } },
{ "type": "Feature", "properties": { "CGM": "San Jose", "NOMBRE": "S.F General Paz", "TIPO": "CLUBES DEPORTIVOS", "Fecha Vencimiento Reconocimiento": "2026-12-21T00:00:00", "LATITUD": -34.7492567, "LONGITUD": -58.34332423 }, "geometry": { "type": "Point", "coordinates": [ -58.34332423, -34.7492567 ] } },
{ "type": "Feature", "properties": { "CGM": "San Jose", "NOMBRE": "San Geronimo Futbol Club", "TIPO": "CLUBES DEPORTIVOS", "Fecha Vencimiento Reconocimiento": "2026-12-21T00:00:00", "LATITUD": -34.74881656, "LONGITUD": -58.34347257 }, "geometry": { "type": "Point", "coordinates": [ -58.34347257, -34.74881656 ] } },
{ "type": "Feature", "properties": { "CGM": "Ingeniero Budge", "NOMBRE": "Tercer Tiempo Deportivo Y Cultural ", "TIPO": "CLUBES DEPORTIVOS", "Fecha Vencimiento Reconocimiento": "2026-12-21T00:00:00", "LATITUD": -34.72585312, "LONGITUD": -58.46296592 }, "geometry": { "type": "Point", "coordinates": [ -58.46296592, -34.72585312 ] } }
]
}
