{
"type": "FeatureCollection",
"name": "Sociedades de Fomento",
"crs": { "type": "name", "properties": { "name": "urn:ogc:def:crs:OGC:1.3:CRS84" } },
"features": [
{ "type": "Feature", "properties": { "CGM": "San Jose", "NOMBRE": "Sociedad De Fomento Y Biblioteca El Fortin", "TIPO": "SOCIEDADES DE FOMENTO", "Fecha Vencimiento Reconocimiento": "2026-12-21T00:00:00", "LATITUD": -34.74964128, "LONGITUD": -58.3638886 }, "geometry": { "type": "Point", "coordinates": [ -58.3638886, -34.74964128 ] } },
{ "type": "Feature", "properties": { "CGM": "Villa Centenario", "NOMBRE": "Sociedad De Fomento Villa Elvira", "TIPO": "SOCIEDADES DE FOMENTO", "Fecha Vencimiento Reconocimiento": "2026-12-21T00:00:00", "LATITUD": -34.7173711, "LONGITUD": -58.43259829 }, "geometry": { "type": "Point", "coordinates": [ -58.43259829, -34.7173711 ] } },
{ "type": "Feature", "properties": { "CGM": "Llavallol", "NOMBRE": "Sociedad De Fomento 25 De Mayo Y Alto Verde", "TIPO": "SOCIEDADES DE FOMENTO", "Fecha Vencimiento Reconocimiento": "2026-12-21T00:00:00", "LATITUD": -34.80800223, "LONGITUD": -58.43403934 }, "geometry": { "type": "Point", "coordinates": [ -58.43403934, -34.80800223 ] } },
{ "type": "Feature", "properties": { "CGM": "Turdera", "NOMBRE": "Sociedad De Fomento Y Alumni Social Club", "TIPO": "SOCIEDADES DE FOMENTO", "Fecha Vencimiento Reconocimiento": "2026-12-21T00:00:00", "LATITUD": -34.79051866, "LONGITUD": -58.4061585 }, "geometry": { "type": "Point", "coordinates": [ -58.4061585, -34.79051866 ] } },
{ "type": "Feature", "properties": { "CGM": "Turdera", "NOMBRE": "Asociacion De Fomento Villa Ratti", "TIPO": "SOCIEDADES DE FOMENTO", "Fecha Vencimiento Reconocimiento": "2026-12-21T00:00:00", "LATITUD": -34.78626348, "LONGITUD": -58.41120392 }, "geometry": { "type": "Point", "coordinates": [ -58.41120392, -34.78626348 ] } },
{ "type": "Feature", "properties": { "CGM": "Temperley", "NOMBRE": "Sociedad De Fomento Villa La Perla", "TIPO": "SOCIEDADES DE FOMENTO", "Fecha Vencimiento Reconocimiento": "2026-12-21T00:00:00", "LATITUD": -34.77817102, "LONGITUD": -58.37873467 }, "geometry": { "type": "Point", "coordinates": [ -58.37873467, -34.77817102 ] } },
{ "type": "Feature", "properties": { "CGM": "Temperley", "NOMBRE": "Asociacion De Fomento Bartolome Mitre", "TIPO": "SOCIEDADES DE FOMENTO", "Fecha Vencimiento Reconocimiento": "2026-12-21T00:00:00", "LATITUD": -34.7772152, "LONGITUD": -58.37165942 }, "geometry": { "type": "Point", "coordinates": [ -58.37165942, -34.7772152 ] } },
{ "type": "Feature", "properties": { "CGM": "San Jose", "NOMBRE": "Sociedad De Fomento Y Cultura General Don Jose De San Martin", "TIPO": "SOCIEDADES DE FOMENTO", "Fecha Vencimiento Reconocimiento": "2026-12-21T00:00:00", "LATITUD": -34.74524268, "LONGITUD": -58.36596026 }, "geometry": { "type": "Point", "coordinates": [ -58.36596026, -34.74524268 ] } },
{ "type": "Feature", "properties": { "CGM": "Banfield", "NOMBRE": "Asociacion De Fomento Villa Recreo Y Correas", "TIPO": "SOCIEDADES DE FOMENTO", "Fecha Vencimiento Reconocimiento": "2026-12-21T00:00:00", "LATITUD": -34.74247659, "LONGITUD": -58.37313407 }, "geometry": { "type": "Point", "coordinates": [ -58.37313407, -34.74247659 ] } },
{ "type": "Feature", "properties": { "CGM": "Villa Lamadrid", "NOMBRE": "Sociedad De Fomento Unidos Por Villa Constitucion", "TIPO": "SOCIEDADES DE FOMENTO", "Fecha Vencimiento Reconocimiento": "2026-12-21T00:00:00", "LATITUD": -34.71783451, "LONGITUD": -58.47085585 }, "geometry": { "type": "Point", "coordinates": [ -58.47085585, -34.71783451 ] } },
{ "type": "Feature", "properties": { "CGM": "Ingeniero Budge", "NOMBRE": "Sociedad De Fomento La Nueva Noria", "TIPO": "SOCIEDADES DE FOMENTO", "Fecha Vencimiento Reconocimiento": "2026-12-21T00:00:00", "LATITUD": -34.71204797, "LONGITUD": -58.46239864 }, "geometry": { "type": "Point", "coordinates": [ -58.46239864, -34.71204797 ] } },
{ "type": "Feature", "properties": { "CGM": "Santa Marta", "NOMBRE": "Sociedad De Fomento Barrio Las Heras", "TIPO": "SOCIEDADES DE FOMENTO", "Fecha Vencimiento Reconocimiento": "2026-12-21T00:00:00", "LATITUD": -34.74681541, "LONGITUD": -58.43743427 }, "geometry": { "type": "Point", "coordinates": [ -58.43743427, -34.74681541 ] } },
{ "type": "Feature", "properties": { "CGM": "Villa Centenario", "NOMBRE": "Sociedad De Fomento Luz Y Fuerza Barrio Sitra", "TIPO": "SOCIEDADES DE FOMENTO", "Fecha Vencimiento Reconocimiento": "2026-12-21T00:00:00", "LATITUD": -34.73474028, "LONGITUD": -58.43142796 }, "geometry": { "type": "Point", "coordinates": [ -58.43142796, -34.73474028 ] } },
{ "type": "Feature", "properties": { "CGM": "San Jose", "NOMBRE": "Sociedad De  Fomento Barrio La Loma", "TIPO": "SOCIEDADES DE FOMENTO", "Fecha Vencimiento Reconocimiento": "2026-12-21T00:00:00", "LATITUD": -34.74709794, "LONGITUD": -58.35090599 }, "geometry": { "type": "Point", "coordinates": [ -58.35090599, -34.74709794 ] } },
{ "type": "Feature", "properties": { "CGM": "Llavallol", "NOMBRE": "Sociedad De Fomento Barrio Enz", "TIPO": "SOCIEDADES DE FOMENTO", "Fecha Vencimiento Reconocimiento": "2026-12-21T00:00:00", "LATITUD": -34.804845, "LONGITUD": -58.422742 }, "geometry": { "type": "Point", "coordinates": [ -58.422742, -34.804845 ] } },
{ "type": "Feature", "properties": { "CGM": "Llavallol", "NOMBRE": "Sociedad De Fomento Gervasio Posadas", "TIPO": "SOCIEDADES DE FOMENTO", "Fecha Vencimiento Reconocimiento": "2026-12-21T00:00:00", "LATITUD": -34.786721, "LONGITUD": -58.421822 }, "geometry": { "type": "Point", "coordinates": [ -58.421822, -34.786721 ] } },
{ "type": "Feature", "properties": { "CGM": "Temperley", "NOMBRE": "Sociedad De Fomento Barrio Moderno Y Villa Moderna", "TIPO": "SOCIEDADES DE FOMENTO", "Fecha Vencimiento Reconocimiento": "2026-12-21T00:00:00", "LATITUD": -34.783078, "LONGITUD": -58.3851 }, "geometry": { "type": "Point", "coordinates": [ -58.3851, -34.783078 ] } },
{ "type": "Feature", "properties": { "CGM": "Parque Baron", "NOMBRE": "Sociedad De Fomento Lucha Y Progreso", "TIPO": "SOCIEDADES DE FOMENTO", "Fecha Vencimiento Reconocimiento": "2026-12-21T00:00:00", "LATITUD": -34.781157, "LONGITUD": -58.428722 }, "geometry": { "type": "Point", "coordinates": [ -58.428722, -34.781157 ] } },
{ "type": "Feature", "properties": { "CGM": "Temperley", "NOMBRE": "Sociedad De Fomento Temperley Oeste", "TIPO": "SOCIEDADES DE FOMENTO", "Fecha Vencimiento Reconocimiento": "2026-12-21T00:00:00", "LATITUD": -34.778949, "LONGITUD": -58.409672 }, "geometry": { "type": "Point", "coordinates": [ -58.409672, -34.778949 ] } },
{ "type": "Feature", "properties": { "CGM": "Temperley", "NOMBRE": "Sociedad De Fomento Y Sala De Asistencia Medica Bernardino Rivadavia", "TIPO": "SOCIEDADES DE FOMENTO", "Fecha Vencimiento Reconocimiento": "2026-12-21T00:00:00", "LATITUD": -34.775288, "LONGITUD": -58.387944 }, "geometry": { "type": "Point", "coordinates": [ -58.387944, -34.775288 ] } },
{ "type": "Feature", "properties": { "CGM": "San Jose", "NOMBRE": "Sociedad De Fomento Almafuerte", "TIPO": "SOCIEDADES DE FOMENTO", "Fecha Vencimiento Reconocimiento": "2026-12-21T00:00:00", "LATITUD": -34.771919, "LONGITUD": -58.366013 }, "geometry": { "type": "Point", "coordinates": [ -58.366013, -34.771919 ] } },
{ "type": "Feature", "properties": { "CGM": "Temperley", "NOMBRE": "Sociedad De Fomento Gral Roca", "TIPO": "SOCIEDADES DE FOMENTO", "Fecha Vencimiento Reconocimiento": "2026-12-21T00:00:00", "LATITUD": -34.769423, "LONGITUD": -58.369389 }, "geometry": { "type": "Point", "coordinates": [ -58.369389, -34.769423 ] } },
{ "type": "Feature", "properties": { "CGM": "Lomas", "NOMBRE": "Sociedad De Fomento Barrio Parque Del Rey", "TIPO": "SOCIEDADES DE FOMENTO", "Fecha Vencimiento Reconocimiento": "2026-12-21T00:00:00", "LATITUD": -34.769288, "LONGITUD": -58.425988 }, "geometry": { "type": "Point", "coordinates": [ -58.425988, -34.769288 ] } },
{ "type": "Feature", "properties": { "CGM": "Temperley", "NOMBRE": "Sociedad De Fomento Carola Lorenzini", "TIPO": "SOCIEDADES DE FOMENTO", "Fecha Vencimiento Reconocimiento": "2026-12-21T00:00:00", "LATITUD": -34.767389, "LONGITUD": -58.385703 }, "geometry": { "type": "Point", "coordinates": [ -58.385703, -34.767389 ] } },
{ "type": "Feature", "properties": { "CGM": "Parque Baron", "NOMBRE": "Sociedad De Fomento Libertador General San Martin", "TIPO": "SOCIEDADES DE FOMENTO", "Fecha Vencimiento Reconocimiento": "2026-12-21T00:00:00", "LATITUD": -34.765318, "LONGITUD": -58.43219 }, "geometry": { "type": "Point", "coordinates": [ -58.43219, -34.765318 ] } },
{ "type": "Feature", "properties": { "CGM": "Temperley", "NOMBRE": "Sociedad De Fomento Oro Oeste", "TIPO": "SOCIEDADES DE FOMENTO", "Fecha Vencimiento Reconocimiento": "2026-12-21T00:00:00", "LATITUD": -34.762793, "LONGITUD": -58.38439 }, "geometry": { "type": "Point", "coordinates": [ -58.38439, -34.762793 ] } },
{ "type": "Feature", "properties": { "CGM": "Parque Baron", "NOMBRE": "Sociedad De Fomento Villa Independencia", "TIPO": "SOCIEDADES DE FOMENTO", "Fecha Vencimiento Reconocimiento": "2026-12-21T00:00:00", "LATITUD": -34.761431, "LONGITUD": -58.446707 }, "geometry": { "type": "Point", "coordinates": [ -58.446707, -34.761431 ] } },
{ "type": "Feature", "properties": { "CGM": "Lomas", "NOMBRE": "Sociedad Italiana Union Y Estrella Lomas De Zamora Mutual Social Y Cultural", "TIPO": "SOCIEDADES DE FOMENTO", "Fecha Vencimiento Reconocimiento": "2026-12-21T00:00:00", "LATITUD": -34.761217, "LONGITUD": -58.399832 }, "geometry": { "type": "Point", "coordinates": [ -58.399832, -34.761217 ] } },
{ "type": "Feature", "properties": { "CGM": "Parque Baron", "NOMBRE": "Sociedad De Fomento Domingo Faustino Sarmiento Este", "TIPO": "SOCIEDADES DE FOMENTO", "Fecha Vencimiento Reconocimiento": "2026-12-21T00:00:00", "LATITUD": -34.761182, "LONGITUD": -58.430248 }, "geometry": { "type": "Point", "coordinates": [ -58.430248, -34.761182 ] } },
{ "type": "Feature", "properties": { "CGM": "Lomas", "NOMBRE": "Union Vecinal De Fomento Villa Rey", "TIPO": "SOCIEDADES DE FOMENTO", "Fecha Vencimiento Reconocimiento": "2026-12-21T00:00:00", "LATITUD": -34.760485, "LONGITUD": -58.422008 }, "geometry": { "type": "Point", "coordinates": [ -58.422008, -34.760485 ] } },
{ "type": "Feature", "properties": { "CGM": "Lomas", "NOMBRE": "Sociedad De Fomento Barrio Laprida", "TIPO": "SOCIEDADES DE FOMENTO", "Fecha Vencimiento Reconocimiento": "2026-12-21T00:00:00", "LATITUD": -34.755384, "LONGITUD": -58.430645 }, "geometry": { "type": "Point", "coordinates": [ -58.430645, -34.755384 ] } },
{ "type": "Feature", "properties": { "CGM": "Banfield", "NOMBRE": "Sociedad De Fomento De Lomas De Zamora Este", "TIPO": "SOCIEDADES DE FOMENTO", "Fecha Vencimiento Reconocimiento": "2026-12-21T00:00:00", "LATITUD": -34.751464, "LONGITUD": -58.381746 }, "geometry": { "type": "Point", "coordinates": [ -58.381746, -34.751464 ] } },
{ "type": "Feature", "properties": { "CGM": "Santa Marta", "NOMBRE": "Sociedad De Fomento Y Cultura Lisandro De La Torre", "TIPO": "SOCIEDADES DE FOMENTO", "Fecha Vencimiento Reconocimiento": "2026-12-21T00:00:00", "LATITUD": -34.747491, "LONGITUD": -58.445114 }, "geometry": { "type": "Point", "coordinates": [ -58.445114, -34.747491 ] } },
{ "type": "Feature", "properties": { "CGM": "Banfield", "NOMBRE": "Sociedad De Fomento Jose Verdi", "TIPO": "SOCIEDADES DE FOMENTO", "Fecha Vencimiento Reconocimiento": "2026-12-21T00:00:00", "LATITUD": -34.746378, "LONGITUD": -58.42318 }, "geometry": { "type": "Point", "coordinates": [ -58.42318, -34.746378 ] } },
{ "type": "Feature", "properties": { "CGM": "Banfield", "NOMBRE": "Sociedad De Fomento Y Cultura Domingo Faustino Sarmiento", "TIPO": "SOCIEDADES DE FOMENTO", "Fecha Vencimiento Reconocimiento": "2026-12-21T00:00:00", "LATITUD": -34.745946, "LONGITUD": -58.418056 }, "geometry": { "type": "Point", "coordinates": [ -58.418056, -34.745946 ] } },
{ "type": "Feature", "properties": { "CGM": "Banfield", "NOMBRE": "Sociedad De Fomento Villa Vetere", "TIPO": "SOCIEDADES DE FOMENTO", "Fecha Vencimiento Reconocimiento": "2026-12-21T00:00:00", "LATITUD": -34.738454, "LONGITUD": -58.420727 }, "geometry": { "type": "Point", "coordinates": [ -58.420727, -34.738454 ] } },
{ "type": "Feature", "properties": { "CGM": "Banfield", "NOMBRE": "Sociedad De Fomento Barrio Luz Y Fuerza", "TIPO": "SOCIEDADES DE FOMENTO", "Fecha Vencimiento Reconocimiento": "2026-12-21T00:00:00", "LATITUD": -34.737297, "LONGITUD": -58.412749 }, "geometry": { "type": "Point", "coordinates": [ -58.412749, -34.737297 ] } },
{ "type": "Feature", "properties": { "CGM": "Villa Albertina", "NOMBRE": "Sociedad De Fomento Barrio Gral Paz", "TIPO": "SOCIEDADES DE FOMENTO", "Fecha Vencimiento Reconocimiento": "2026-12-21T00:00:00", "LATITUD": -34.728415, "LONGITUD": -58.447442 }, "geometry": { "type": "Point", "coordinates": [ -58.447442, -34.728415 ] } },
{ "type": "Feature", "properties": { "CGM": "Villa Centenario", "NOMBRE": "Sociedad De Fomento Fiorito", "TIPO": "SOCIEDADES DE FOMENTO", "Fecha Vencimiento Reconocimiento": "2026-12-21T00:00:00", "LATITUD": -34.716536, "LONGITUD": -58.432692 }, "geometry": { "type": "Point", "coordinates": [ -58.432692, -34.716536 ] } },
{ "type": "Feature", "properties": { "CGM": "Villa Fiorito", "NOMBRE": "Sociedad De Fomento Y Sala De 1 Auxilios Vecinos Unidos De Fiorito (La Bolsita)", "TIPO": "SOCIEDADES DE FOMENTO", "Fecha Vencimiento Reconocimiento": "2026-12-21T00:00:00", "LATITUD": -34.712171, "LONGITUD": -58.434692 }, "geometry": { "type": "Point", "coordinates": [ -58.434692, -34.712171 ] } },
{ "type": "Feature", "properties": { "CGM": "Villa Fiorito", "NOMBRE": "Sociedad De Fomento Villa Urbana", "TIPO": "SOCIEDADES DE FOMENTO", "Fecha Vencimiento Reconocimiento": "2026-12-21T00:00:00", "LATITUD": -34.711511, "LONGITUD": -58.45283 }, "geometry": { "type": "Point", "coordinates": [ -58.45283, -34.711511 ] } },
{ "type": "Feature", "properties": { "CGM": "Villa Fiorito", "NOMBRE": "Sociedad De Fomento Darwin", "TIPO": "SOCIEDADES DE FOMENTO", "Fecha Vencimiento Reconocimiento": "2026-12-21T00:00:00", "LATITUD": -34.708788, "LONGITUD": -58.433305 }, "geometry": { "type": "Point", "coordinates": [ -58.433305, -34.708788 ] } },
{ "type": "Feature", "properties": { "CGM": "Villa Fiorito", "NOMBRE": "Sociedad De Fomento Villa Fiorito", "TIPO": "SOCIEDADES DE FOMENTO", "Fecha Vencimiento Reconocimiento": "2026-12-21T00:00:00", "LATITUD": -34.708788, "LONGITUD": -58.433305 }, "geometry": { "type": "Point", "coordinates": [ -58.433305, -34.708788 ] } },
{ "type": "Feature", "properties": { "CGM": "San Jose", "NOMBRE": "Soc. De Fomento Y Cultura General Don Jose De San Martin (S.M. De Ban)", "TIPO": "SOCIEDADES DE FOMENTO", "Fecha Vencimiento Reconocimiento": "2026-12-21T00:00:00", "LATITUD": -34.74527988, "LONGITUD": -58.36614606 }, "geometry": { "type": "Point", "coordinates": [ -58.36614606, -34.74527988 ] } },
{ "type": "Feature", "properties": { "CGM": "Lomas", "NOMBRE": "Social Las Heras", "TIPO": "SOCIEDADES DE FOMENTO", "Fecha Vencimiento Reconocimiento": "2026-12-21T00:00:00", "LATITUD": -34.74954466, "LONGITUD": -58.40404259 }, "geometry": { "type": "Point", "coordinates": [ -58.40404259, -34.74954466 ] } },
{ "type": "Feature", "properties": { "CGM": "Parque Baron", "NOMBRE": "Sociedad De Fomento 10 De Junio De Parque Baron.", "TIPO": "SOCIEDADES DE FOMENTO", "Fecha Vencimiento Reconocimiento": "2026-12-21T00:00:00", "LATITUD": -34.75918589, "LONGITUD": -58.43408125 }, "geometry": { "type": "Point", "coordinates": [ -58.43408125, -34.75918589 ] } },
{ "type": "Feature", "properties": { "CGM": "Santa Marta", "NOMBRE": "Sociedad De Fomento 824 Sueños", "TIPO": "SOCIEDADES DE FOMENTO", "Fecha Vencimiento Reconocimiento": "2026-12-21T00:00:00", "LATITUD": -34.73834592, "LONGITUD": -58.43491766 }, "geometry": { "type": "Point", "coordinates": [ -58.43491766, -34.73834592 ] } },
{ "type": "Feature", "properties": { "CGM": "San Jose", "NOMBRE": "Sociedad De Fomento Año Del Libertador", "TIPO": "SOCIEDADES DE FOMENTO", "Fecha Vencimiento Reconocimiento": "2026-12-21T00:00:00", "LATITUD": -34.74365959, "LONGITUD": -58.34900043 }, "geometry": { "type": "Point", "coordinates": [ -58.34900043, -34.74365959 ] } },
{ "type": "Feature", "properties": { "CGM": "San Jose", "NOMBRE": "Sociedad De Fomento Barrio La Loma", "TIPO": "SOCIEDADES DE FOMENTO", "Fecha Vencimiento Reconocimiento": "2026-12-21T00:00:00", "LATITUD": -34.74731887, "LONGITUD": -58.35035398 }, "geometry": { "type": "Point", "coordinates": [ -58.35035398, -34.74731887 ] } },
{ "type": "Feature", "properties": { "CGM": "Santa Catalina", "NOMBRE": "Sociedad De Fomento Juan Manuel De Rosas", "TIPO": "SOCIEDADES DE FOMENTO", "Fecha Vencimiento Reconocimiento": "2026-12-21T00:00:00", "LATITUD": -34.73928958, "LONGITUD": -58.47403895 }, "geometry": { "type": "Point", "coordinates": [ -58.47403895, -34.73928958 ] } },
{ "type": "Feature", "properties": { "CGM": "Villa Albertina", "NOMBRE": "Sociedad De Fomento Los Chicos De Malvinas", "TIPO": "SOCIEDADES DE FOMENTO", "Fecha Vencimiento Reconocimiento": "2026-12-21T00:00:00", "LATITUD": -34.74582846, "LONGITUD": -58.46213215 }, "geometry": { "type": "Point", "coordinates": [ -58.46213215, -34.74582846 ] } },
{ "type": "Feature", "properties": { "CGM": "San Jose", "NOMBRE": "Sociedad De Fomento San Luis", "TIPO": "SOCIEDADES DE FOMENTO", "Fecha Vencimiento Reconocimiento": "2026-12-21T00:00:00", "LATITUD": -34.74448214, "LONGITUD": -58.35726026 }, "geometry": { "type": "Point", "coordinates": [ -58.35726026, -34.74448214 ] } },
{ "type": "Feature", "properties": { "CGM": "San Jose", "NOMBRE": "Sociedad De Fomento Sarmiento De Temperley", "TIPO": "SOCIEDADES DE FOMENTO", "Fecha Vencimiento Reconocimiento": "2026-12-21T00:00:00", "LATITUD": -34.74543287, "LONGITUD": -58.34459339 }, "geometry": { "type": "Point", "coordinates": [ -58.34459339, -34.74543287 ] } },
{ "type": "Feature", "properties": { "CGM": "Llavallol", "NOMBRE": "Sociedad De Fomento Turdera Sud", "TIPO": "SOCIEDADES DE FOMENTO", "Fecha Vencimiento Reconocimiento": "2026-12-21T00:00:00", "LATITUD": -34.79891521, "LONGITUD": -58.41101809 }, "geometry": { "type": "Point", "coordinates": [ -58.41101809, -34.79891521 ] } },
{ "type": "Feature", "properties": { "CGM": "Villa Fiorito", "NOMBRE": "Sociedad De Fomento Vecinos Unidos (La Bolsita)", "TIPO": "SOCIEDADES DE FOMENTO", "Fecha Vencimiento Reconocimiento": "2026-12-21T00:00:00", "LATITUD": -34.71214491, "LONGITUD": -58.43470243 }, "geometry": { "type": "Point", "coordinates": [ -58.43470243, -34.71214491 ] } },
{ "type": "Feature", "properties": { "CGM": "Villa Centenario", "NOMBRE": "Sociedad De Fomento Y Sala De Primeros Auxilios Union Vecinal Villa Elvira", "TIPO": "SOCIEDADES DE FOMENTO", "Fecha Vencimiento Reconocimiento": "2026-12-21T00:00:00", "LATITUD": -34.71740637, "LONGITUD": -58.43258756 }, "geometry": { "type": "Point", "coordinates": [ -58.43258756, -34.71740637 ] } }
]
}
